Time,header.seq,header.frame_id,child_frame_id,pose.x,pose.y,pose.z,orientation.x,orientation.y,orientation.z,orientation.w,linear.x,linear.y,linear.z,angular.x,angular.y,angular.z
52.69,2613,odom,base_link,0.0032860916842981595,-6.316779656171216e-08,0.0,0.0,0.0,-9.83772355043101e-06,0.9999999999516096,6.770858165842437e-05,0.0,0.0
52.71,2614,odom,base_link,0.003287445926174479,-6.319444190175684e-08,0.0,0.0,0.0,-9.837742486204727e-06,0.9999999999516094,6.771326457953255e-05,0.0,0.0
52.73,2615,odom,base_link,0.0032888002617140304,-6.322108913597505e-08,0.0,0.0,0.0,-9.837761433063232e-06,0.9999999999516093,6.771794782052374e-05,0.0,0.0
52.75,2616,odom,base_link,0.003290154690923341,-6.32477382645322e-08,0.0,0.0,0.0,-9.837780390929937e-06,0.999999999951609,6.772263139011493e-05,0.0,0.0
52.77,2617,odom,base_link,0.003291509213808788,-6.327438928759058e-08,0.0,0.0,0.0,-9.837799359766346e-06,0.9999999999516088,6.772731527737735e-05,0.0,0.0
52.79,2618,odom,base_link,0.003292863830376897,-6.330104220531562e-08,0.0,0.0,0.0,-9.837818339648675e-06,0.9999999999516087,6.773199949104968e-05,0.0,0.0
52.81,2619,odom,base_link,0.0032942185406341327,-6.332769701787154e-08,0.0,0.0,0.0,-9.837837330539585e-06,0.9999999999516085,6.773668402898519e-05,0.0,0.0
52.83,2620,odom,base_link,0.0032955733445869137,-6.335435372542163e-08,0.0,0.0,0.0,-9.83785633247641e-06,0.9999999999516083,6.774136888676034e-05,0.0,0.0
52.85,2621,odom,base_link,0.0032969282422417472,-6.338101232813099e-08,0.0,0.0,0.0,-9.837875345498796e-06,0.9999999999516082,6.77460540709454e-05,0.0,0.0
52.87,2622,odom,base_link,0.003298283233605138,-6.340767282616462e-08,0.0,0.0,0.0,-9.83789436949051e-06,0.9999999999516079,6.775073957722525e-05,0.0,0.0
52.89,2623,odom,base_link,0.0032996383186835077,-6.343433521968581e-08,0.0,0.0,0.0,-9.837913404567008e-06,0.9999999999516077,6.775542540987163e-05,0.0,0.0
52.91,2624,odom,base_link,0.0033009934974833387,-6.346099950885918e-08,0.0,0.0,0.0,-9.837932450651708e-06,0.9999999999516075,6.776011156240102e-05,0.0,0.0
52.93,2625,odom,base_link,0.003302348770011094,-6.348766569384903e-08,0.0,0.0,0.0,-9.837951507783091e-06,0.9999999999516074,6.77647980391719e-05,0.0,0.0
52.95,2626,odom,base_link,0.0033037041362732594,-6.351433377481988e-08,0.0,0.0,0.0,-9.837970575883795e-06,0.9999999999516072,6.776948484016261e-05,0.0,0.0
52.97,2627,odom,base_link,0.003305059596276298,-6.354100375193595e-08,0.0,0.0,0.0,-9.837989655069677e-06,0.9999999999516069,6.777417196320474e-05,0.0,0.0
52.99,2628,odom,base_link,0.0033064151500266925,-6.356767562536195e-08,0.0,0.0,0.0,-9.83800874526337e-06,0.9999999999516068,6.777885941263508e-05,0.0,0.0
53.01,2629,odom,base_link,0.0033077707975309287,-6.359434939526267e-08,0.0,0.0,0.0,-9.838027846619604e-06,0.9999999999516066,6.778354718632861e-05,0.0,0.0
53.03,2630,odom,base_link,0.003309126538795426,-6.362102506180153e-08,0.0,0.0,0.0,-9.838046958945162e-06,0.9999999999516064,6.778823527988346e-05,0.0,0.0
53.05,2631,odom,base_link,0.003310482373826712,-6.364770262514403e-08,0.0,0.0,0.0,-9.838066082239657e-06,0.9999999999516063,6.779292370201663e-05,0.0,0.0
53.07,2632,odom,base_link,0.0033118383026312296,-6.367438208545403e-08,0.0,0.0,0.0,-9.838085216658201e-06,0.999999999951606,6.779761244622289e-05,0.0,0.0
53.09,2633,odom,base_link,0.0033131943252154824,-6.37010634428966e-08,0.0,0.0,0.0,-9.838104362084944e-06,0.9999999999516058,6.780230151245888e-05,0.0,0.0
53.11,2634,odom,base_link,0.0033145504415858914,-6.372774669763516e-08,0.0,0.0,0.0,-9.838123518557981e-06,0.9999999999516057,6.780699090074628e-05,0.0,0.0
53.13,2635,odom,base_link,0.0033159066517489846,-6.375443184983527e-08,0.0,0.0,0.0,-9.83814268607771e-06,0.9999999999516055,6.781168061546528e-05,0.0,0.0
53.15,2636,odom,base_link,0.0033172629557112238,-6.378111889966115e-08,0.0,0.0,0.0,-9.838161864527893e-06,0.9999999999516053,6.781637065223569e-05,0.0,0.0
53.17,2637,odom,base_link,0.0033186193534790734,-6.380780784727712e-08,0.0,0.0,0.0,-9.838181054102122e-06,0.999999999951605,6.782106101322591e-05,0.0,0.0
53.19,2638,odom,base_link,0.00331997584505906,-6.383449869284883e-08,0.0,0.0,0.0,-9.838200254722648e-06,0.9999999999516049,6.782575170281613e-05,0.0,0.0
53.21,2639,odom,base_link,0.003321332430457581,-6.386119143653932e-08,0.0,0.0,0.0,-9.838219466389863e-06,0.9999999999516047,6.783044271224599e-05,0.0,0.0
53.23,2640,odom,base_link,0.0033226891096811663,-6.388788607851426e-08,0.0,0.0,0.0,-9.838238689103765e-06,0.9999999999516045,6.783513404589567e-05,0.0,0.0
53.25,2641,odom,base_link,0.0033240458827362984,-6.391458261893842e-08,0.0,0.0,0.0,-9.838257922863966e-06,0.9999999999516044,6.783982570380853e-05,0.0,0.0
53.27,2642,odom,base_link,0.0033254027496294426,-6.394128105797613e-08,0.0,0.0,0.0,-9.838277167632366e-06,0.9999999999516042,6.784451768815299e-05,0.0,0.0
53.29,2643,odom,base_link,0.003326759710367016,-6.396798139579085e-08,0.0,0.0,0.0,-9.838296423447064e-06,0.9999999999516039,6.784920998797859e-05,0.0,0.0
53.31,2644,odom,base_link,0.0033281167649556334,-6.399468363255008e-08,0.0,0.0,0.0,-9.838315690386202e-06,0.9999999999516038,6.785390262071931e-05,0.0,0.0
53.33,2645,odom,base_link,0.003329473913401651,-6.402138776841606e-08,0.0,0.0,0.0,-9.83833496829389e-06,0.9999999999516036,6.785859557119632e-05,0.0,0.0
53.35,2646,odom,base_link,0.0033308311557116183,-6.404809380355472e-08,0.0,0.0,0.0,-9.838354257287137e-06,0.9999999999516034,6.786328885244173e-05,0.0,0.0
53.37,2647,odom,base_link,0.003332188491891997,-6.407480173813052e-08,0.0,0.0,0.0,-9.838373557249322e-06,0.9999999999516032,6.786798245354847e-05,0.0,0.0
53.39,2648,odom,base_link,0.003333545921949273,-6.410151157230823e-08,0.0,0.0,0.0,-9.838392868335943e-06,0.999999999951603,6.787267637668493e-05,0.0,0.0
53.41,2649,odom,base_link,0.003334903445889909,-6.412822330625238e-08,0.0,0.0,0.0,-9.838412190429991e-06,0.9999999999516028,6.787737063065484e-05,0.0,0.0
53.43,2650,odom,base_link,0.003336261063720408,-6.415493694012816e-08,0.0,0.0,0.0,-9.838431523570728e-06,0.9999999999516026,6.788206520225263e-05,0.0,0.0
53.45,2651,odom,base_link,0.00333761877544728,-6.418165247410094e-08,0.0,0.0,0.0,-9.838450867797022e-06,0.9999999999516025,6.788676010242872e-05,0.0,0.0
53.47,2652,odom,base_link,0.0033389765810769435,-6.420836990833431e-08,0.0,0.0,0.0,-9.838470223069232e-06,0.9999999999516023,6.789145532688968e-05,0.0,0.0
53.49,2653,odom,base_link,0.0033403344806159268,-6.423508924299391e-08,0.0,0.0,0.0,-9.838489589388512e-06,0.999999999951602,6.78961508690002e-05,0.0,0.0
53.51,2654,odom,base_link,0.0033416924740706927,-6.42618104782442e-08,0.0,0.0,0.0,-9.838508966715609e-06,0.9999999999516018,6.790084674411257e-05,0.0,0.0
53.53,2655,odom,base_link,0.0033430505614477253,-6.42885336142501e-08,0.0,0.0,0.0,-9.838528355204858e-06,0.9999999999516017,6.790554293249431e-05,0.0,0.0
53.55,2656,odom,base_link,0.0033444087427535523,-6.431525865117746e-08,0.0,0.0,0.0,-9.838547754625326e-06,0.9999999999516015,6.791023945383455e-05,0.0,0.0
53.57,2657,odom,base_link,0.0033457670179946157,-6.434198558919026e-08,0.0,0.0,0.0,-9.838567165207944e-06,0.9999999999516013,6.791493629724788e-05,0.0,0.0
53.59,2658,odom,base_link,0.0033471253871773994,-6.436871442845343e-08,0.0,0.0,0.0,-9.838586586721014e-06,0.9999999999516012,6.791963346704943e-05,0.0,0.0
53.61,2659,odom,base_link,0.00334848385030841,-6.439544516913227e-08,0.0,0.0,0.0,-9.838606019358134e-06,0.9999999999516009,6.792433095456559e-05,0.0,0.0
53.63,2660,odom,base_link,0.003349842407394153,-6.442217781139201e-08,0.0,0.0,0.0,-9.838625463003064e-06,0.9999999999516007,6.792902877282846e-05,0.0,0.0
53.65,2661,odom,base_link,0.0033512010584410934,-6.444891235539742e-08,0.0,0.0,0.0,-9.838644917694683e-06,0.9999999999516005,6.793372691318611e-05,0.0,0.0
53.67,2662,odom,base_link,0.003352559803455715,-6.447564880131339e-08,0.0,0.0,0.0,-9.838664383587328e-06,0.9999999999516004,6.79384253799103e-05,0.0,0.0
53.689,2663,odom,base_link,0.003353918642444501,-6.450238714930495e-08,0.0,0.0,0.0,-9.838683860449292e-06,0.9999999999516002,6.794312417083263e-05,0.0,0.0
53.71,2664,odom,base_link,0.00335527757541398,-6.452912739953786e-08,0.0,0.0,0.0,-9.838703348357949e-06,0.9999999999515999,6.794782328820823e-05,0.0,0.0
53.73,2665,odom,base_link,0.0033566366023705728,-6.455586955217587e-08,0.0,0.0,0.0,-9.838722847351394e-06,0.9999999999515997,6.795252272544515e-05,0.0,0.0
53.75,2666,odom,base_link,0.0033579957233208285,-6.45826136073853e-08,0.0,0.0,0.0,-9.838742357468503e-06,0.9999999999515996,6.795722248692358e-05,0.0,0.0
53.77,2667,odom,base_link,0.0033593549382712313,-6.46093595653312e-08,0.0,0.0,0.0,-9.838761878633065e-06,0.9999999999515994,6.796192257479023e-05,0.0,0.0
53.79,2668,odom,base_link,0.003360714247228244,-6.463610742617817e-08,0.0,0.0,0.0,-9.838781410805055e-06,0.9999999999515992,6.796662298689838e-05,0.0,0.0
53.81,2669,odom,base_link,0.003362073650198394,-6.466285719009203e-08,0.0,0.0,0.0,-9.838800954139203e-06,0.999999999951599,6.797132372322634e-05,0.0,0.0
53.83,2670,odom,base_link,0.0033634331471881686,-6.468960885723799e-08,0.0,0.0,0.0,-9.83882050848193e-06,0.9999999999515988,6.797602478813262e-05,0.0,0.0
53.85,2671,odom,base_link,0.003364792738204006,-6.471636242778017e-08,0.0,0.0,0.0,-9.838840073909058e-06,0.9999999999515986,6.798072617292191e-05,0.0,0.0
53.87,2672,odom,base_link,0.003366152423252457,-6.474311790188499e-08,0.0,0.0,0.0,-9.838859650460623e-06,0.9999999999515984,6.798542788414278e-05,0.0,0.0
53.89,2673,odom,base_link,0.0033675122023400267,-6.476987527971787e-08,0.0,0.0,0.0,-9.838879238020003e-06,0.9999999999515983,6.79901299217302e-05,0.0,0.0
53.91,2674,odom,base_link,0.0033688720754731154,-6.479663456144225e-08,0.0,0.0,0.0,-9.838898836664554e-06,0.999999999951598,6.799483228139071e-05,0.0,0.0
53.93,2675,odom,base_link,0.003370232042658337,-6.482339574722577e-08,0.0,0.0,0.0,-9.838918446470874e-06,0.9999999999515978,6.799953496746113e-05,0.0,0.0
53.95,2676,odom,base_link,0.003371592103902067,-6.485015883723142e-08,0.0,0.0,0.0,-9.838938067247288e-06,0.9999999999515976,6.800423797339287e-05,0.0,0.0
53.97,2677,odom,base_link,0.003372952259210921,-6.48769238316268e-08,0.0,0.0,0.0,-9.838957699070389e-06,0.9999999999515975,6.800894130792461e-05,0.0,0.0
53.99,2678,odom,base_link,0.003374312508591339,-6.490369073057612e-08,0.0,0.0,0.0,-9.838977342094133e-06,0.9999999999515973,6.801364496884457e-05,0.0,0.0
54.01,2679,odom,base_link,0.003375672852049785,-6.49304595342441e-08,0.0,0.0,0.0,-9.838996996048707e-06,0.999999999951597,6.801834895181594e-05,0.0,0.0
54.03,2680,odom,base_link,0.0033770332895928087,-6.495723024279706e-08,0.0,0.0,0.0,-9.839016661049583e-06,0.9999999999515968,6.802305326124059e-05,0.0,0.0
54.05,2681,odom,base_link,0.003378393821226895,-6.498400285640002e-08,0.0,0.0,0.0,-9.83903633717451e-06,0.9999999999515967,6.802775789701009e-05,0.0,0.0
54.07,2682,odom,base_link,0.0033797544469585054,-6.50107773752178e-08,0.0,0.0,0.0,-9.839056024384611e-06,0.9999999999515965,6.803246285487437e-05,0.0,0.0
54.09,2683,odom,base_link,0.0033811151667941896,-6.503755379941685e-08,0.0,0.0,0.0,-9.839075722641011e-06,0.9999999999515963,6.80371681390835e-05,0.0,0.0
54.11,2684,odom,base_link,0.00338247598074039,-6.506433212916147e-08,0.0,0.0,0.0,-9.83909543202185e-06,0.999999999951596,6.804187374540911e-05,0.0,0.0
54.13,2685,odom,base_link,0.003383836888803657,-6.509111236461811e-08,0.0,0.0,0.0,-9.839115152410112e-06,0.9999999999515959,6.804657967814462e-05,0.0,0.0
54.15,2686,odom,base_link,0.0033851978909904953,-6.511789450595241e-08,0.0,0.0,0.0,-9.839134883922426e-06,0.9999999999515957,6.805128593941507e-05,0.0,0.0
54.17,2687,odom,base_link,0.0033865589873073466,-6.514467855332879e-08,0.0,0.0,0.0,-9.839154626558407e-06,0.9999999999515955,6.805599252492702e-05,0.0,0.0
54.19,2688,odom,base_link,0.0033879201777607397,-6.51714645069132e-08,0.0,0.0,0.0,-9.839174380240686e-06,0.9999999999515953,6.806069943032198e-05,0.0,0.0
54.21,2689,odom,base_link,0.003389281462357224,-6.519825236687209e-08,0.0,0.0,0.0,-9.839194144931162e-06,0.9999999999515952,6.806540666648534e-05,0.0,0.0
54.23,2690,odom,base_link,0.003390642841103218,-6.52250421333695e-08,0.0,0.0,0.0,-9.839213920822662e-06,0.9999999999515949,6.807011422251002e-05,0.0,0.0
54.25,2691,odom,base_link,0.003392004314005294,-6.525183380657242e-08,0.0,0.0,0.0,-9.839233707760852e-06,0.9999999999515947,6.807482210711302e-05,0.0,0.0
54.27,2692,odom,base_link,0.0033933658810699156,-6.527862738664563e-08,0.0,0.0,0.0,-9.839253505784215e-06,0.9999999999515945,6.807953031816928e-05,0.0,0.0
54.29,2693,odom,base_link,0.0033947275423035885,-6.530542287375477e-08,0.0,0.0,0.0,-9.839273314931627e-06,0.9999999999515944,6.808423885121191e-05,0.0,0.0
54.31,2694,odom,base_link,0.0033960892977128194,-6.53322202680656e-08,0.0,0.0,0.0,-9.839293135086082e-06,0.9999999999515942,6.808894771070782e-05,0.0,0.0
54.33,2695,odom,base_link,0.0033974511473041135,-6.535901956974377e-08,0.0,0.0,0.0,-9.839312966365356e-06,0.9999999999515939,6.809365689442354e-05,0.0,0.0
54.35,2696,odom,base_link,0.0033988130910839994,-6.538582077895536e-08,0.0,0.0,0.0,-9.839332808690547e-06,0.9999999999515937,6.809836640671757e-05,0.0,0.0
54.37,2697,odom,base_link,0.0034001751290589394,-6.541262389586524e-08,0.0,0.0,0.0,-9.839352662178276e-06,0.9999999999515936,6.810307624104133e-05,0.0,0.0
54.39,2698,odom,base_link,0.003401537261235463,-6.543942892063971e-08,0.0,0.0,0.0,-9.839372526751178e-06,0.9999999999515934,6.810778640181837e-05,0.0,0.0
54.41,2699,odom,base_link,0.0034028994876200763,-6.546623585344447e-08,0.0,0.0,0.0,-9.83939240237115e-06,0.9999999999515932,6.811249688679354e-05,0.0,0.0
54.43,2700,odom,base_link,0.0034042618082192637,-6.549304469444482e-08,0.0,0.0,0.0,-9.8394122891144e-06,0.9999999999515929,6.811720769379844e-05,0.0,0.0
54.45,2701,odom,base_link,0.0034056242230395732,-6.551985544380738e-08,0.0,0.0,0.0,-9.839432187020194e-06,0.9999999999515928,6.812191883159342e-05,0.0,0.0
54.47,2702,odom,base_link,0.003406986732087449,-6.554666810169672e-08,0.0,0.0,0.0,-9.839452095933796e-06,0.9999999999515926,6.812663029143981e-05,0.0,0.0
54.49,2703,odom,base_link,0.003408349335369505,-6.557348266828057e-08,0.0,0.0,0.0,-9.83947201593296e-06,0.9999999999515924,6.81313420820546e-05,0.0,0.0
54.51,2704,odom,base_link,0.0034097120328921396,-6.560029914372266e-08,0.0,0.0,0.0,-9.83949194701691e-06,0.9999999999515922,6.813605419472081e-05,0.0,0.0
54.53,2705,odom,base_link,0.0034110748246618788,-6.562711752818903e-08,0.0,0.0,0.0,-9.839511889186424e-06,0.9999999999515921,6.814076663158515e-05,0.0,0.0
54.55,2706,odom,base_link,0.0034124377106852953,-6.565393782184684e-08,0.0,0.0,0.0,-9.839531842518087e-06,0.9999999999515918,6.814547939704949e-05,0.0,0.0
54.57,2707,odom,base_link,0.0034138006909688527,-6.568076002486106e-08,0.0,0.0,0.0,-9.83955180689644e-06,0.9999999999515916,6.815019248458692e-05,0.0,0.0
54.59,2708,odom,base_link,0.003415163765519078,-6.570758413739786e-08,0.0,0.0,0.0,-9.83957178232109e-06,0.9999999999515914,6.815490590287107e-05,0.0,0.0
54.61,2709,odom,base_link,0.0034165269343424337,-6.573441015962222e-08,0.0,0.0,0.0,-9.83959176890867e-06,0.9999999999515912,6.815961963663636e-05,0.0,0.0
54.63,2710,odom,base_link,0.003417890197445449,-6.576123809170057e-08,0.0,0.0,0.0,-9.839611766581041e-06,0.9999999999515911,6.816433370123511e-05,0.0,0.0
54.65,2711,odom,base_link,0.0034192535548347386,-6.578806793380078e-08,0.0,0.0,0.0,-9.839631775415944e-06,0.9999999999515908,6.81690480965372e-05,0.0,0.0
54.67,2712,odom,base_link,0.003420617006516657,-6.58148996860858e-08,0.0,0.0,0.0,-9.83965179525866e-06,0.9999999999515906,6.81737628095539e-05,0.0,0.0
54.69,2713,odom,base_link,0.0034219805524978186,-6.58417333487235e-08,0.0,0.0,0.0,-9.839671826186939e-06,0.9999999999515904,6.817847785117059e-05,0.0,0.0
54.71,2714,odom,base_link,0.0034233441927847075,-6.586856892187931e-08,0.0,0.0,0.0,-9.83969186827737e-06,0.9999999999515903,6.81831932191755e-05,0.0,0.0
54.73,2715,odom,base_link,0.0034247079273838532,-6.589540640571965e-08,0.0,0.0,0.0,-9.839711921452974e-06,0.9999999999515901,6.818790891356864e-05,0.0,0.0
54.75,2716,odom,base_link,0.003426071756301718,-6.592224580040962e-08,0.0,0.0,0.0,-9.839731985829604e-06,0.9999999999515898,6.819262493222496e-05,0.0,0.0
54.77,2717,odom,base_link,0.0034274356795449172,-6.594908710611731e-08,0.0,0.0,0.0,-9.839752061253307e-06,0.9999999999515896,6.819734127943791e-05,0.0,0.0
54.79,2718,odom,base_link,0.003428799697119825,-6.597593032300593e-08,0.0,0.0,0.0,-9.839772147761415e-06,0.9999999999515894,6.820205794655555e-05,0.0,0.0
54.81,2719,odom,base_link,0.0034301638090330584,-6.600277545124353e-08,0.0,0.0,0.0,-9.839792245355084e-06,0.9999999999515893,6.82067749444199e-05,0.0,0.0
54.83,2720,odom,base_link,0.0034315280152911235,-6.602962249099596e-08,0.0,0.0,0.0,-9.839812354072416e-06,0.9999999999515891,6.82114922686508e-05,0.0,0.0
54.85,2721,odom,base_link,0.0034328923159004836,-6.605647144242837e-08,0.0,0.0,0.0,-9.839832473874923e-06,0.9999999999515888,6.821620991499816e-05,0.0,0.0
54.87,2722,odom,base_link,0.0034342567108676886,-6.608332230570756e-08,0.0,0.0,0.0,-9.839852604801476e-06,0.9999999999515886,6.822092788556533e-05,0.0,0.0
54.89,2723,odom,base_link,0.0034356212001993305,-6.61101750810011e-08,0.0,0.0,0.0,-9.839872746813205e-06,0.9999999999515885,6.822564619338444e-05,0.0,0.0
54.91,2724,odom,base_link,0.003436985783901764,-6.613702976847208e-08,0.0,0.0,0.0,-9.839892899987477e-06,0.9999999999515883,6.823036481239125e-05,0.0,0.0
54.93,2725,odom,base_link,0.003438350461981648,-6.616388636828959e-08,0.0,0.0,0.0,-9.839913064323512e-06,0.9999999999515881,6.823508376431318e-05,0.0,0.0
54.95,2726,odom,base_link,0.0034397152344454447,-6.619074488061878e-08,0.0,0.0,0.0,-9.839933239707003e-06,0.9999999999515878,6.82398030426667e-05,0.0,0.0
54.97,2727,odom,base_link,0.003441080101299682,-6.621760530562598e-08,0.0,0.0,0.0,-9.839953426213774e-06,0.9999999999515876,6.824452264524004e-05,0.0,0.0
54.99,2728,odom,base_link,0.0034424450625508453,-6.624446764347668e-08,0.0,0.0,0.0,-9.839973623844208e-06,0.9999999999515875,6.82492425742016e-05,0.0,0.0
55.01,2729,odom,base_link,0.0034438101182055064,-6.62713318943382e-08,0.0,0.0,0.0,-9.839993832521718e-06,0.9999999999515873,6.825396282961644e-05,0.0,0.0
55.03,2730,odom,base_link,0.0034451752682701712,-6.629819805837652e-08,0.0,0.0,0.0,-9.840014052360989e-06,0.9999999999515871,6.825868341139781e-05,0.0,0.0
55.05,2731,odom,base_link,0.0034465405127513246,-6.632506613575727e-08,0.0,0.0,0.0,-9.84003428328582e-06,0.9999999999515868,6.826340431744237e-05,0.0,0.0
55.07,2732,odom,base_link,0.00344790585165556,-6.635193612664809e-08,0.0,0.0,0.0,-9.840054525334701e-06,0.9999999999515866,6.826812555421196e-05,0.0,0.0
55.09,2733,odom,base_link,0.003449271284989318,-6.637880803121383e-08,0.0,0.0,0.0,-9.840074778507248e-06,0.9999999999515865,6.827284711303296e-05,0.0,0.0
55.11,2734,odom,base_link,0.003450636812759171,-6.640568184962189e-08,0.0,0.0,0.0,-9.84009504280307e-06,0.9999999999515863,6.827756899609546e-05,0.0,0.0
55.13,2735,odom,base_link,0.0034520024349716455,-6.643255758203872e-08,0.0,0.0,0.0,-9.840115318223714e-06,0.9999999999515861,6.828229121209477e-05,0.0,0.0
55.15,2736,odom,base_link,0.003453368151633206,-6.645943522862955e-08,0.0,0.0,0.0,-9.840135604728763e-06,0.9999999999515858,6.828701374580868e-05,0.0,0.0
55.17,2737,odom,base_link,0.0034547339627504893,-6.64863147895631e-08,0.0,0.0,0.0,-9.840155902434836e-06,0.9999999999515856,6.829173661460612e-05,0.0,0.0
55.19,2738,odom,base_link,0.0034560998683298913,-6.651319626500338e-08,0.0,0.0,0.0,-9.840176211265347e-06,0.9999999999515855,6.829645980328656e-05,0.0,0.0
55.21,2739,odom,base_link,0.0034574658683780065,-6.654007965511815e-08,0.0,0.0,0.0,-9.840196531103283e-06,0.9999999999515853,6.830118331837691e-05,0.0,0.0
55.23,2740,odom,base_link,0.0034588319629013597,-6.656696496007384e-08,0.0,0.0,0.0,-9.84021686218112e-06,0.9999999999515851,6.830590716204557e-05,0.0,0.0
55.25,2741,odom,base_link,0.0034601981519064603,-6.65938521800366e-08,0.0,0.0,0.0,-9.840237204305259e-06,0.9999999999515848,6.831063133212414e-05,0.0,0.0
55.27,2742,odom,base_link,0.003461564435399816,-6.662074131517253e-08,0.0,0.0,0.0,-9.840257557591935e-06,0.9999999999515846,6.831535582642252e-05,0.0,0.0
55.29,2743,odom,base_link,0.003462930813387996,-6.664763236564904e-08,0.0,0.0,0.0,-9.840277921963789e-06,0.9999999999515845,6.832008064929922e-05,0.0,0.0
55.31,2744,odom,base_link,0.0034642972858774873,-6.667452533163197e-08,0.0,0.0,0.0,-9.840298297498179e-06,0.9999999999515843,6.83248057986075e-05,0.0,0.0
55.33,2745,odom,base_link,0.00346566385287486,-6.670142021328882e-08,0.0,0.0,0.0,-9.840318684195104e-06,0.9999999999515841,6.832953127215729e-05,0.0,0.0
55.35,2746,odom,base_link,0.0034670305143865775,-6.672831701078483e-08,0.0,0.0,0.0,-9.840339081938714e-06,0.9999999999515838,6.833425706988353e-05,0.0,0.0
55.37,2747,odom,base_link,0.0034683972704192775,-6.675521572428867e-08,0.0,0.0,0.0,-9.840359490844095e-06,0.9999999999515836,6.833898320056825e-05,0.0,0.0
55.394,2748,odom,base_link,0.0034697641209793795,-6.67821163539648e-08,0.0,0.0,0.0,-9.84037991087391e-06,0.9999999999515835,6.834370965332607e-05,0.0,0.0
55.41,2749,odom,base_link,0.0034711310660734745,-6.68090188999812e-08,0.0,0.0,0.0,-9.840400342065873e-06,0.9999999999515833,6.834843643247212e-05,0.0,0.0
55.43,2750,odom,base_link,0.003472498105708049,-6.683592336250365e-08,0.0,0.0,0.0,-9.840420784343398e-06,0.9999999999515831,6.835316353802806e-05,0.0,0.0
55.45,2751,odom,base_link,0.003473865239889696,-6.686282974170003e-08,0.0,0.0,0.0,-9.840441237744205e-06,0.9999999999515828,6.835789097433073e-05,0.0,0.0
55.47,2752,odom,base_link,0.003475232468624877,-6.688973803773576e-08,0.0,0.0,0.0,-9.84046170230755e-06,0.9999999999515826,6.836261873489658e-05,0.0,0.0
55.491,2753,odom,base_link,0.003476599791920143,-6.691664825077792e-08,0.0,0.0,0.0,-9.840482177994945e-06,0.9999999999515825,6.836734682180728e-05,0.0,0.0
55.51,2754,odom,base_link,0.003477967209782045,-6.694356038099366e-08,0.0,0.0,0.0,-9.84050266484449e-06,0.9999999999515823,6.837207523083445e-05,0.0,0.0
55.53,2755,odom,base_link,0.003479334722217131,-6.697047442855006e-08,0.0,0.0,0.0,-9.840523162817701e-06,0.9999999999515821,6.837680397490177e-05,0.0,0.0
55.55,2756,odom,base_link,0.0034807023292318657,-6.69973903936125e-08,0.0,0.0,0.0,-9.840543671876472e-06,0.9999999999515818,6.838153303891716e-05,0.0,0.0
55.57,2757,odom,base_link,0.0034820700308328834,-6.702430827634971e-08,0.0,0.0,0.0,-9.840564192136651e-06,0.9999999999515816,6.838626243363589e-05,0.0,0.0
55.59,2758,odom,base_link,0.003483437827026584,-6.70512280769258e-08,0.0,0.0,0.0,-9.84058472344275e-06,0.9999999999515814,6.8390992148281e-05,0.0,0.0
55.61,2759,odom,base_link,0.0034848057178196255,-6.707814979551011e-08,0.0,0.0,0.0,-9.84060526594987e-06,0.9999999999515813,6.839572219581954e-05,0.0,0.0
55.63,2760,odom,base_link,0.003486173703218471,-6.710507343226812e-08,0.0,0.0,0.0,-9.840625819542554e-06,0.9999999999515811,6.84004525654095e-05,0.0,0.0
55.65,2761,odom,base_link,0.0034875417832296923,-6.713199898736736e-08,0.0,0.0,0.0,-9.840646384297392e-06,0.9999999999515808,6.840518326576786e-05,0.0,0.0
55.67,2762,odom,base_link,0.003488909957859838,-6.715892646097499e-08,0.0,0.0,0.0,-9.84066696025364e-06,0.9999999999515806,6.840991429472621e-05,0.0,0.0
55.69,2763,odom,base_link,0.0034902782271153936,-6.718585585325699e-08,0.0,0.0,0.0,-9.840687547256186e-06,0.9999999999515804,6.841464565009446e-05,0.0,0.0
55.71,2764,odom,base_link,0.003491646591002909,-6.721278716438052e-08,0.0,0.0,0.0,-9.840708145421273e-06,0.9999999999515802,6.841937732749245e-05,0.0,0.0
55.73,2765,odom,base_link,0.0034930150495289555,-6.723972039451318e-08,0.0,0.0,0.0,-9.840728754748513e-06,0.9999999999515801,6.842410933349043e-05,0.0,0.0
55.75,2766,odom,base_link,0.003494383602700039,-6.72666555438214e-08,0.0,0.0,0.0,-9.840749375277162e-06,0.9999999999515798,6.842884167021344e-05,0.0,0.0
55.77,2767,odom,base_link,0.0034957522505227327,-6.729359261247286e-08,0.0,0.0,0.0,-9.840770006929482e-06,0.9999999999515796,6.843357433117795e-05,0.0,0.0
55.79,2768,odom,base_link,0.0034971209930034983,-6.732053160063305e-08,0.0,0.0,0.0,-9.840790649666967e-06,0.9999999999515794,6.843830732293255e-05,0.0,0.0
55.81,2769,odom,base_link,0.0034984898301489292,-6.734747250847003e-08,0.0,0.0,0.0,-9.840811303605869e-06,0.9999999999515792,6.844304063452678e-05,0.0,0.0
55.83,2770,odom,base_link,0.003499858761965574,-6.737441533615109e-08,0.0,0.0,0.0,-9.840831968629565e-06,0.9999999999515791,6.844777427688942e-05,0.0,0.0
55.85,2771,odom,base_link,0.0035012277884599644,-6.740136008384303e-08,0.0,0.0,0.0,-9.840852644892771e-06,0.9999999999515788,6.845250824351524e-05,0.0,0.0
55.87,2772,odom,base_link,0.0035025969096386463,-6.742830675171305e-08,0.0,0.0,0.0,-9.840873332202665e-06,0.9999999999515786,6.845724254086609e-05,0.0,0.0
55.89,2773,odom,base_link,0.0035039661255081077,-6.745525533992718e-08,0.0,0.0,0.0,-9.840894030713965e-06,0.9999999999515784,6.846197716245845e-05,0.0,0.0
55.91,2774,odom,base_link,0.003505335436074939,-6.748220584865354e-08,0.0,0.0,0.0,-9.840914740387036e-06,0.9999999999515782,6.846671211043902e-05,0.0,0.0
55.93,2775,odom,base_link,0.0035067048413456917,-6.750915827805943e-08,0.0,0.0,0.0,-9.840935461107181e-06,0.999999999951578,6.847144739133472e-05,0.0,0.0
55.95,2776,odom,base_link,0.003508074341326872,-6.753611262831123e-08,0.0,0.0,0.0,-9.840956193066838e-06,0.9999999999515778,6.847618299432519e-05,0.0,0.0
55.97,2777,odom,base_link,0.003509443936025052,-6.756306889957675e-08,0.0,0.0,0.0,-9.84097693618942e-06,0.9999999999515776,6.848091892589398e-05,0.0,0.0
55.99,2778,odom,base_link,0.003510813625446781,-6.759002709202329e-08,0.0,0.0,0.0,-9.84099769043528e-06,0.9999999999515774,6.848565518601939e-05,0.0,0.0
56.01,2779,odom,base_link,0.0035121834095985438,-6.761698720581696e-08,0.0,0.0,0.0,-9.841018455882164e-06,0.9999999999515772,6.84903917682179e-05,0.0,0.0
56.03,2780,odom,base_link,0.0035135532884869765,-6.764394924112689e-08,0.0,0.0,0.0,-9.841039232491589e-06,0.999999999951577,6.849512868114144e-05,0.0,0.0
56.05,2781,odom,base_link,0.0035149232621185422,-6.767091319811864e-08,0.0,0.0,0.0,-9.84106002022506e-06,0.9999999999515767,6.849986592270834e-05,0.0,0.0
56.07,2782,odom,base_link,0.0035162933304997914,-6.76978790769596e-08,0.0,0.0,0.0,-9.841080819043326e-06,0.9999999999515765,6.850460348847338e-05,0.0,0.0
56.09,2783,odom,base_link,0.0035176634936373388,-6.772484687781836e-08,0.0,0.0,0.0,-9.84110162910149e-06,0.9999999999515764,6.850934138715354e-05,0.0,0.0
56.11,2784,odom,base_link,0.0035190337515376264,-6.775181660086019e-08,0.0,0.0,0.0,-9.841122450321805e-06,0.9999999999515762,6.85140796035483e-05,0.0,0.0
56.13,2785,odom,base_link,0.0035204041042073116,-6.777878824625454e-08,0.0,0.0,0.0,-9.841143282627685e-06,0.999999999951576,6.851881815504826e-05,0.0,0.0
56.15,2786,odom,base_link,0.0035217745516528793,-6.780576181416756e-08,0.0,0.0,0.0,-9.841164126173072e-06,0.9999999999515757,6.852355703078973e-05,0.0,0.0
56.17,2787,odom,base_link,0.003523145093880901,-6.783273730476715e-08,0.0,0.0,0.0,-9.84118498088139e-06,0.9999999999515755,6.852829623510951e-05,0.0,0.0
56.19,2788,odom,base_link,0.003524515730897884,-6.78597147182198e-08,0.0,0.0,0.0,-9.841205846712598e-06,0.9999999999515753,6.853303576586088e-05,0.0,0.0
56.213,2789,odom,base_link,0.0032891965917303152,-6.447150170030241e-08,0.0,0.0,0.0,-3.7923051412818384e-06,0.9999999999928092,0.0004765920362642712,0.0,0.0
56.23,2790,odom,base_link,0.003292528191430487,-6.450810512720538e-08,0.0,0.0,0.0,-5.182785635753797e-06,0.9999999999865694,6.346020085226363e-05,0.0,0.0
56.25,2791,odom,base_link,0.0032937309992477964,-6.451966473299257e-08,0.0,0.0,0.0,-4.515193512417828e-06,0.9999999999898065,6.0427484354172705e-05,0.0,0.0
56.27,2792,odom,base_link,0.0032949553820767028,-6.45302890725513e-08,0.0,0.0,0.0,-4.201216127070268e-06,0.9999999999911748,6.142550265808783e-05,0.0,0.0
56.29,2793,odom,base_link,0.0032961915572566865,-6.454046814991261e-08,0.0,0.0,0.0,-4.05151508132763e-06,0.9999999999917926,6.190738476580726e-05,0.0,0.0
56.31,2794,odom,base_link,0.0032974334142875416,-6.455043134243711e-08,0.0,0.0,0.0,-3.980043313863738e-06,0.9999999999920797,6.214093305775435e-05,0.0,0.0
56.33,2795,odom,base_link,0.0032986780679541802,-6.456029122878674e-08,0.0,0.0,0.0,-3.945912010810467e-06,0.9999999999922149,6.22567176476129e-05,0.0,0.0
56.35,2796,odom,base_link,0.0032999241433645105,-6.457010224629145e-08,0.0,0.0,0.0,-3.929608513463501e-06,0.9999999999922791,6.23163285418068e-05,0.0,0.0
56.37,2797,odom,base_link,0.0033011709842173786,-6.457989054249372e-08,0.0,0.0,0.0,-3.9218169699751004e-06,0.9999999999923097,6.234912130601402e-05,0.0,0.0
56.39,2798,odom,base_link,0.003302418277143809,-6.458966863804608e-08,0.0,0.0,0.0,-3.918089520670617e-06,0.9999999999923243,6.236910851165458e-05,0.0,0.0
56.41,2799,odom,base_link,0.0033036658724965107,-6.459944251964977e-08,0.0,0.0,0.0,-3.916302519321608e-06,0.9999999999923312,6.238298021958187e-05,0.0,0.0
56.43,2800,odom,base_link,0.0033049136987964947,-6.46092150477683e-08,0.0,0.0,0.0,-3.9154420225816245e-06,0.9999999999923347,6.239393058675739e-05,0.0,0.0
56.45,2801,odom,base_link,0.003306161721886244,-6.461898758860637e-08,0.0,0.0,0.0,-3.915023919131704e-06,0.9999999999923362,6.240348466275561e-05,0.0,0.0
56.47,2802,odom,base_link,0.0033074099254276797,-6.462876079450078e-08,0.0,0.0,0.0,-3.914817068124985e-06,0.9999999999923371,6.241237060829402e-05,0.0,0.0
56.49,2803,odom,base_link,0.0033086583015903546,-6.463853497682004e-08,0.0,0.0,0.0,-3.91471111029419e-06,0.9999999999923376,6.242093606273784e-05,0.0,0.0
56.51,2804,odom,base_link,0.005408592885784199,2.5946367465570493e-06,0.0,0.0,0.0,0.0011967901946830987,0.9999992838463585,0.1900248503199673,0.0,0.0
56.53,2805,odom,base_link,0.014308991002042297,4.8487877477094226e-05,0.0,0.0,0.0,0.003754042713842053,0.9999929535568252,0.5000261488334949,0.0,0.0
56.55,2806,odom,base_link,0.02430908938231492,0.0001491486216476918,0.0,0.0,0.0,0.006311554945578543,0.9999800819387199,0.50003259493649,0.0,0.0
56.57,2807,odom,base_link,0.03430869141107846,0.00030096223545546935,0.0,0.0,0.0,0.00886908561877763,0.9999606688866751,0.5000402703281118,0.0,0.0
56.59,2808,odom,base_link,0.0443162343717891,0.0005040584391233693,0.0,0.0,0.0,0.011410897781552081,0.9999348935864869,0.5010557553903594,0.0,0.0
56.61,2809,odom,base_link,0.0543295657803256,0.000758035921073547,0.0,0.0,0.0,0.013949906580499822,0.9999026953190971,0.5007816136313815,0.0,0.0
56.63,2810,odom,base_link,0.0643371289259215,0.001062812785778172,0.0,0.0,0.0,0.016492056610058953,0.9998639967859482,0.5004973492944169,0.0,0.0
56.65,2811,odom,base_link,0.07434139636511637,0.0014183926324042727,0.0,0.0,0.0,0.019034413571746494,0.9998188291385494,0.5005394162503615,0.0,0.0
56.67,2812,odom,base_link,0.08434335083997674,0.0018248444541942841,0.0,0.0,0.0,0.021577624036556827,0.9997671759669533,0.5004988623236706,0.0,0.0
56.69,2813,odom,base_link,0.09434541286883984,0.002282250960083614,0.0,0.0,0.0,0.024117291502407594,0.9997091358243096,0.500771920667979,0.0,0.0
56.71,2814,odom,base_link,0.10434286037018399,0.0027898975211090218,0.0,0.0,0.0,0.026594201210269394,0.9996463116832811,0.50048674886805,0.0,0.0
56.73,2815,odom,base_link,0.11433842992641079,0.0033467714728457145,0.0,0.0,0.0,0.029051603930004322,0.9995779130758613,0.5004771550478514,0.0,0.0
56.75,2816,odom,base_link,0.12432580036516973,0.003952363381138264,0.0,0.0,0.0,0.03150007540167802,0.9995037494925613,0.5001930580818408,0.0,0.0
56.77,2817,odom,base_link,0.1343062852208932,0.004606616698604281,0.0,0.0,0.0,0.03394875141007949,0.9994235750059615,0.5001035154180015,0.0,0.0
56.79,2818,odom,base_link,0.14428368928231713,0.005309858765884786,0.0,0.0,0.0,0.03640433267962949,0.9993371425911032,0.5000389481017731,0.0,0.0
56.81,2819,odom,base_link,0.1542553571317507,0.006061109238308398,0.0,0.0,0.0,0.038745810752065714,0.9992490991485382,0.49995975429537715,0.0,0.0
56.83,2820,odom,base_link,0.1642255895317546,0.006858528562197917,0.0,0.0,0.0,0.041043828645733395,0.9991573470330385,0.5000857190015944,0.0,0.0
56.85,2821,odom,base_link,0.17419487763232655,0.007702157083500888,0.0,0.0,0.0,0.04335306631461602,0.9990598138455578,0.50021193366461,0.0,0.0
56.87,2822,odom,base_link,0.1841600795228727,0.00859189952960498,0.0,0.0,0.0,0.045666495033814106,0.9989567414214324,0.5002646638497883,0.0,0.0
56.89,2823,odom,base_link,0.19412245958218374,0.009527916445810082,0.0,0.0,0.0,0.047980737597921194,0.9988482611586004,0.5003513851988386,0.0,0.0
56.91,2824,odom,base_link,0.20408004621578393,0.010509405456418788,0.0,0.0,0.0,0.05020199813517694,0.9987390847379688,0.500386302525645,0.0,0.0
56.93,2825,odom,base_link,0.21403321428447866,0.011534454677600187,0.0,0.0,0.0,0.05237887670366106,0.9986272844636594,0.5004762067050199,0.0,0.0
56.95,2826,odom,base_link,0.22399349039381802,0.012604015635386035,0.0,0.0,0.0,0.054540800923380296,0.9985115427648477,0.5008564137743012,0.0,0.0
56.97,2827,odom,base_link,0.23395081069412219,0.01371688664456521,0.0,0.0,0.0,0.05670382348555361,0.9983910438310828,0.5010249331441112,0.0,0.0
56.99,2828,odom,base_link,0.24390705071955732,0.0148733359768468,0.0,0.0,0.0,0.058866924252020524,0.9982658389572924,0.5011890765101505,0.0,0.0
57.01,2829,odom,base_link,0.253859642036415,0.016072451875638372,0.0,0.0,0.0,0.06094485993469608,0.9981411343329861,0.5014010393899389,0.0,0.0
57.03,2830,odom,base_link,0.2638116002012422,0.01731301957911276,0.0,0.0,0.0,0.0629918557649898,0.9980140410371403,0.5014853848056724,0.0,0.0
57.05,2831,odom,base_link,0.27375715067521306,0.018594210846924572,0.0,0.0,0.0,0.06503376710396415,0.9978830638588208,0.5013311157158407,0.0,0.0
57.07,2832,odom,base_link,0.2836831383738561,0.019913989222278605,0.0,0.0,0.0,0.06704708042803517,0.9977498128318926,0.5002226018508072,0.0,0.0
57.09,2833,odom,base_link,0.2935815422327407,0.021270260626791854,0.0,0.0,0.0,0.06901934725500944,0.9976153215064875,0.49955177035753734,0.0,0.0
57.11,2834,odom,base_link,0.3034752467283929,0.02266509973707775,0.0,0.0,0.0,0.07090102791599215,0.9974833553701313,0.4996535241715981,0.0,0.0
57.13,2835,odom,base_link,0.31336454792227125,0.024096758645934167,0.0,0.0,0.0,0.07274474137240608,0.9973505916189461,0.4996152320578488,0.0,0.0
57.15,2836,odom,base_link,0.32324868684553376,0.025565003806772943,0.0,0.0,0.0,0.0745888521306313,0.9972143717064225,0.49963413541317986,0.0,0.0
57.17,2837,odom,base_link,0.333127475032814,0.027069814726730083,0.0,0.0,0.0,0.0764326761006891,0.9970747444520331,0.4996371987552765,0.0,0.0
57.19,2838,odom,base_link,0.3429986986785459,0.02861084426884963,0.0,0.0,0.0,0.07827568955664775,0.996931751136672,0.4994870036122066,0.0,0.0
57.21,2839,odom,base_link,0.3528648933401371,0.030187856946467993,0.0,0.0,0.0,0.08003574617022695,0.9967919940162917,0.4996724604985185,0.0,0.0
57.23,2840,odom,base_link,0.3627293519737657,0.03179980478622995,0.0,0.0,0.0,0.0817667148424389,0.9966514959321916,0.499840489694298,0.0,0.0
57.25,2841,odom,base_link,0.3725910485498836,0.03344658721281468,0.0,0.0,0.0,0.0835066724360242,0.9965072180665139,0.4999550992101924,0.0,0.0
57.27,2842,odom,base_link,0.3824524062230569,0.0351288311565847,0.0,0.0,0.0,0.08525629257729381,0.9963590540442612,0.5002720220757709,0.0,0.0
57.29,2843,odom,base_link,0.39231219939830864,0.03684657362514953,0.0,0.0,0.0,0.08701674346881612,0.9962068491814751,0.5003960611117467,0.0,0.0
57.31,2844,odom,base_link,0.40216295565073146,0.0385981482133884,0.0,0.0,0.0,0.08870513372268356,0.9960579296663628,0.500301829041622,0.0,0.0
57.33,2845,odom,base_link,0.4120106748772336,0.040383121145474835,0.0,0.0,0.0,0.09036668049308753,0.9959085615942159,0.5004362492940315,0.0,0.0
57.35,2846,odom,base_link,0.42185129285725226,0.04220079838785927,0.0,0.0,0.0,0.0920330204265431,0.9957559556192308,0.5003286878134675,0.0,0.0
57.37,2847,odom,base_link,0.4316888162268458,0.044051928293900415,0.0,0.0,0.0,0.09369431543501357,0.9956010120802229,0.5005107889969693,0.0,0.0
57.39,2848,odom,base_link,0.44152047656330135,0.04593594443323983,0.0,0.0,0.0,0.09535491405178348,0.9954433386015383,0.5005402531191087,0.0,0.0
57.41,2849,odom,base_link,0.45134625542272694,0.04785238342439835,0.0,0.0,0.0,0.09695556155707873,0.995288711421541,0.500592793278071,0.0,0.0
57.43,2850,odom,base_link,0.4611670025178539,0.04980026676752828,0.0,0.0,0.0,0.0985343959823398,0.9951336457021215,0.5005883503225093,0.0,0.0
57.45,2851,odom,base_link,0.47098127307583604,0.05177925574567446,0.0,0.0,0.0,0.10011350454364468,0.9949760229312009,0.500584623395459,0.0,0.0
57.47,2852,odom,base_link,0.480784894019302,0.05378851873252254,0.0,0.0,0.0,0.10169603598357016,0.9948155187094884,0.5001910802145602,0.0,0.0
57.49,2853,odom,base_link,0.49057915615447556,0.05582851431708211,0.0,0.0,0.0,0.10329644403526733,0.9946506143614796,0.5002513025988007,0.0,0.0
57.51,2854,odom,base_link,0.5003625413233486,0.057898882766648334,0.0,0.0,0.0,0.10485650340960978,0.9944873622589231,0.4999598410344006,0.0,0.0
57.53,2855,odom,base_link,0.5101303521883541,0.05999754958308893,0.0,0.0,0.0,0.10638340752496173,0.9943251835307089,0.49935969932713464,0.0,0.0
57.55,2856,odom,base_link,0.51988749010738,0.06212514956900745,0.0,0.0,0.0,0.1079023070591669,0.9941615020364193,0.4994674949368675,0.0,0.0
57.57,2857,odom,base_link,0.5296500592685862,0.06428545764004398,0.0,0.0,0.0,0.10944285358835106,0.9939930894118121,0.4999132604686849,0.0,0.0
57.59,2858,odom,base_link,0.5393962016761482,0.06647370303528634,0.0,0.0,0.0,0.11096605535871856,0.9938241970077635,0.4992399717345223,0.0,0.0
57.61,2859,odom,base_link,0.5491265228628733,0.06868939905272636,0.0,0.0,0.0,0.11245437348846211,0.9936568894157165,0.49894788693938574,0.0,0.0
57.63,2860,odom,base_link,0.5588545290726277,0.07093515945178948,0.0,0.0,0.0,0.11394012599733172,0.993487618286062,0.49922014520117386,0.0,0.0
57.65,2861,odom,base_link,0.5685812821487695,0.07321138119390945,0.0,0.0,0.0,0.11543427867559924,0.9933151198419583,0.4994987721441916,0.0,0.0
57.67,2862,odom,base_link,0.5782972255064667,0.0755158512815558,0.0,0.0,0.0,0.11691431260141588,0.9931420057116396,0.49917020718808247,0.0,0.0
57.69,2863,odom,base_link,0.588016416559136,0.07785138330431889,0.0,0.0,0.0,0.11837099648418277,0.9929694392031114,0.4996247078004782,0.0,0.0
57.71,2864,odom,base_link,0.597725565325474,0.08021454142757602,0.0,0.0,0.0,0.11980943201341065,0.9927969077311956,0.4996445390003271,0.0,0.0
57.73,2865,odom,base_link,0.6074282485796217,0.082605767629832,0.0,0.0,0.0,0.12123757567981691,0.992623518884819,0.499654718913101,0.0,0.0
57.75,2866,odom,base_link,0.6171245494217292,0.08502502851741162,0.0,0.0,0.0,0.12266496570088947,0.9924481377833301,0.49968575126738723,0.0,0.0
57.77,2867,odom,base_link,0.6268142871384151,0.0874722764480532,0.0,0.0,0.0,0.12409191933173484,0.9922707269473217,0.49969937221608396,0.0,0.0
57.79,2868,odom,base_link,0.6364968834203342,0.08994738677619753,0.0,0.0,0.0,0.12552277047052154,0.992090738840659,0.4997672517549959,0.0,0.0
57.81,2869,odom,base_link,0.6461735374326443,0.09245034005150168,0.0,0.0,0.0,0.1268953174112773,0.9919161146080303,0.49983685627887386,0.0,0.0
57.83,2870,odom,base_link,0.6558447034755883,0.09497993809724972,0.0,0.0,0.0,0.12823536391821977,0.9917437629956448,0.4999172962748103,0.0,0.0
57.85,2871,odom,base_link,0.6655174325180314,0.0975380168666982,0.0,0.0,0.0,0.12959165758809782,0.9915674471681537,0.5002580790895942,0.0,0.0
57.87,2872,odom,base_link,0.6751823829348953,0.10012245764168518,0.0,0.0,0.0,0.1309577331463379,0.9913879523825032,0.5002449444196814,0.0,0.0
57.89,2873,odom,base_link,0.6848408765305185,0.10273383725052164,0.0,0.0,0.0,0.13233511932464417,0.9912050323688496,0.5002607377561145,0.0,0.0
57.91,2874,odom,base_link,0.6944922102096432,0.10537166755177153,0.0,0.0,0.0,0.13365418604807067,0.9910280311635125,0.5002998532852302,0.0,0.0
57.93,2875,odom,base_link,0.7041409500703838,0.10803595320069524,0.0,0.0,0.0,0.1349443011194325,0.9908531856916987,0.5005605712727182,0.0,0.0
57.95,2876,odom,base_link,0.713788199583709,0.11072676172684746,0.0,0.0,0.0,0.13622400491813685,0.9906780609683771,0.5007942923155043,0.0,0.0
57.97,2877,odom,base_link,0.7234285038928524,0.11344249993651598,0.0,0.0,0.0,0.13750345971032915,0.9905012865048132,0.5008268800574703,0.0,0.0
57.99,2878,odom,base_link,0.7330668496734585,0.11618448573350891,0.0,0.0,0.0,0.13877349473647793,0.9903241475186924,0.501102289665634,0.0,0.0
58.01,2879,odom,base_link,0.7426973919501583,0.11895084195183257,0.0,0.0,0.0,0.14003232415220104,0.9901469326279474,0.5009006595718349,0.0,0.0
58.03,2880,odom,base_link,0.7523174237267404,0.12174069748106443,0.0,0.0,0.0,0.14129448609665368,0.9899676096714894,0.5007737429855944,0.0,0.0
58.05,2881,odom,base_link,0.7619303707998588,0.12455510184383069,0.0,0.0,0.0,0.1425559909275907,0.9897867393790708,0.5008352877243442,0.0,0.0
58.07,2882,odom,base_link,0.771536503581607,0.12739410086475705,0.0,0.0,0.0,0.14381679285456658,0.9896043300698651,0.5008371729117004,0.0,0.0
58.09,2883,odom,base_link,0.7811222965156395,0.13025355011244408,0.0,0.0,0.0,0.14506895685902801,0.9894215470444504,0.4999558365605786,0.0,0.0
58.11,2884,odom,base_link,0.7906961024411007,0.13313594437825785,0.0,0.0,0.0,0.1463304061952709,0.9892357718070688,0.49993119961288,0.0,0.0
58.13,2885,odom,base_link,0.8002536461193253,0.13603996422760034,0.0,0.0,0.0,0.14757901010602795,0.9890502695900371,0.4992632096259445,0.0,0.0
58.15,2886,odom,base_link,0.80979885409372,0.13896643733725214,0.0,0.0,0.0,0.1488183900926268,0.9888645441971508,0.49922733750306125,0.0,0.0
58.17,2887,odom,base_link,0.819338317181995,0.14191737414477926,0.0,0.0,0.0,0.15006137274751896,0.9886766834557849,0.49927270647774946,0.0,0.0
58.19,2888,odom,base_link,0.8288781685675244,0.14489486641862095,0.0,0.0,0.0,0.15131869715306653,0.9884850286635092,0.499781872982891,0.0,0.0
58.21,2889,odom,base_link,0.8384170523468503,0.14789862107153742,0.0,0.0,0.0,0.15256002870668228,0.9882942060140878,0.5000991506765643,0.0,0.0
58.23,2890,odom,base_link,0.8479486326602136,0.150926275116365,0.0,0.0,0.0,0.153792544215524,0.9881031592620864,0.49998001070600295,0.0,0.0
58.25,2891,odom,base_link,0.85746719302263,0.15397585169891012,0.0,0.0,0.0,0.15501531833614862,0.9879120664720836,0.499704193311307,0.0,0.0
58.27,2892,odom,base_link,0.8669699809338782,0.1570461825745936,0.0,0.0,0.0,0.1562229594868757,0.9877218165704157,0.4992278887017424,0.0,0.0
58.29,2893,odom,base_link,0.8764657537906503,0.16013986897618984,0.0,0.0,0.0,0.1574294439438371,0.9875302376026439,0.49939242754901725,0.0,0.0
58.31,2894,odom,base_link,0.8859532410537361,0.16325655906964662,0.0,0.0,0.0,0.15863948032081307,0.9873365764943292,0.4992634711754266,0.0,0.0
58.33,2895,odom,base_link,0.8954382747868752,0.166398168685381,0.0,0.0,0.0,0.1598384572467291,0.9871431849458241,0.5000124794604547,0.0,0.0
58.35,2896,odom,base_link,0.9049178502536076,0.16956336035829062,0.0,0.0,0.0,0.16102689503011755,0.9869500185303,0.4997452459757027,0.0,0.0
58.37,2897,odom,base_link,0.9143917162462494,0.1727520604331069,0.0,0.0,0.0,0.162216991635689,0.986755110260224,0.49982394629277704,0.0,0.0
58.39,2898,odom,base_link,0.9238583062309609,0.1759637445821412,0.0,0.0,0.0,0.16340738566578777,0.9865586785943715,0.49983637248131074,0.0,0.0
58.41,2899,odom,base_link,0.9333176225318185,0.17919820974626874,0.0,0.0,0.0,0.16456503048105925,0.9863662356056031,0.4998744654262369,0.0,0.0
58.43,2900,odom,base_link,0.9427713239694995,0.18245533010633497,0.0,0.0,0.0,0.16571323785048245,0.9861739820138784,0.49995613996587396,0.0,0.0
58.45,2901,odom,base_link,0.9522188433102579,0.18573505094356504,0.0,0.0,0.0,0.16687255001337234,0.9859784744364527,0.5000887541505908,0.0,0.0
58.47,2902,odom,base_link,0.9616607168894714,0.1890378918028785,0.0,0.0,0.0,0.16804716739124537,0.9857789557156202,0.5001675881313453,0.0,0.0
58.49,2903,odom,base_link,0.9710976445151652,0.19236429080347459,0.0,0.0,0.0,0.1692209718634215,0.9855781362639895,0.500361514833814,0.0,0.0
58.51,2904,odom,base_link,0.9805308586618657,0.19571414313814267,0.0,0.0,0.0,0.17033408931592858,0.9853863699163457,0.5005601124011997,0.0,0.0
58.53,2905,odom,base_link,0.9899546036999007,0.1990843228164874,0.0,0.0,0.0,0.17143299500965342,0.9851957816708413,0.5004127395554895,0.0,0.0
58.55,2906,odom,base_link,0.9993755274203056,0.2024771417833937,0.0,0.0,0.0,0.17252296674496986,0.9850054953884846,0.5007406059796219,0.0,0.0
58.57,2907,odom,base_link,1.0087934310488533,0.2058923403494429,0.0,0.0,0.0,0.1736044733607704,0.9848154582606478,0.5009560211671208,0.0,0.0
58.59,2908,odom,base_link,1.0182079548466614,0.20932964169986326,0.0,0.0,0.0,0.17467778291278965,0.9846256507712321,0.5011806373823539,0.0,0.0
58.61,2909,odom,base_link,1.0256306873908023,0.212053410762135,0.0,0.0,0.0,0.17476447925709995,0.984610266445559,0.30995138177307735,0.0,0.0
58.63,2910,odom,base_link,1.0271420889293918,0.21260643021335285,0.0,0.0,0.0,0.17397080264995382,0.9847508110305524,0.04748588405487675,0.0,0.0
58.65,2911,odom,base_link,1.0280345735297902,0.21293111574583198,0.0,0.0,0.0,0.17317714036603882,0.9848906934551881,0.047487316576461436,0.0,0.0
58.67,2912,odom,base_link,1.0289276454876641,0.2132543859675887,0.0,0.0,0.0,0.17238335797022145,0.9850299375627679,0.047489284274588095,0.0,0.0
58.69,2913,odom,base_link,1.0298202116638795,0.21357584747679764,0.0,0.0,0.0,0.17159178999571909,0.985168136718837,0.04737899777671506,0.0,0.0
58.71,2914,odom,base_link,1.0322149469144928,0.21443345315089268,0.0,0.0,0.0,0.17081651605649847,0.9853028558987942,0.1871814177479839,0.0,0.0
58.73,2915,odom,base_link,1.0359010486810156,0.2157478127928359,0.0,0.0,0.0,0.1700305774117773,0.9854387869091705,0.19571661617516256,0.0,0.0
58.75,2916,odom,base_link,1.0395940508515147,0.21705819078160804,0.0,0.0,0.0,0.16929208092173195,0.9855659243993725,0.19533977212473663,0.0,0.0
58.77,2917,odom,base_link,1.043279116526117,0.21835961782301955,0.0,0.0,0.0,0.1685762886293175,0.9856886095070618,0.1956324094077203,0.0,0.0
58.79,2918,odom,base_link,1.0469733286885343,0.2196582991975919,0.0,0.0,0.0,0.16786465834368813,0.9858100509120187,0.1958037086576606,0.0,0.0
58.81,2919,odom,base_link,1.050662894513738,0.22094939901584393,0.0,0.0,0.0,0.16717658790122872,0.9859269691299162,0.19508286514095008,0.0,0.0
58.83,2920,odom,base_link,1.0543466882093333,0.22223290635669948,0.0,0.0,0.0,0.1665223818293893,0.9860376749140304,0.19504636919490148,0.0,0.0
58.85,2921,odom,base_link,1.0580321467984668,0.22351151185271506,0.0,0.0,0.0,0.16586737554384962,0.9861480688670416,0.1950474185990262,0.0,0.0
58.87,2922,odom,base_link,1.0617192125344446,0.22478518591533175,0.0,0.0,0.0,0.1652115421260059,0.9862581540085471,0.19504110578109113,0.0,0.0
58.89,2923,odom,base_link,1.0654078913437295,0.22605392548684075,0.0,0.0,0.0,0.16455497361775692,0.9863679134367963,0.1950394672440573,0.0,0.0
58.91,2924,odom,base_link,1.0690850984309226,0.22731336375293143,0.0,0.0,0.0,0.16393873280944476,0.9864705225625515,0.19403402861535335,0.0,0.0
58.93,2925,odom,base_link,1.0727575186999687,0.2285661859437752,0.0,0.0,0.0,0.1633458041401983,0.9865688765969621,0.19401588967187278,0.0,0.0
58.95,2926,odom,base_link,1.076431137372612,0.22981448297609092,0.0,0.0,0.0,0.1627508993437707,0.986667190476502,0.19398736545916984,0.0,0.0
58.97,2927,odom,base_link,1.080105662675254,0.23105814009716183,0.0,0.0,0.0,0.1621545640090407,0.986765370982909,0.1939577968316789,0.0,0.0
58.99,2928,odom,base_link,1.083781442393154,0.2322972715842224,0.0,0.0,0.0,0.1615582369277249,0.9868631800208199,0.1939503588071826,0.0,0.0
59.01,2929,odom,base_link,1.0874494837366613,0.23352905621207615,0.0,0.0,0.0,0.1610296231978163,0.9869495734092848,0.193252642414388,0.0,0.0
59.03,2930,odom,base_link,1.091113235030825,0.23475520663396462,0.0,0.0,0.0,0.16052245788287844,0.987032188185998,0.1932283842008501,0.0,0.0
59.05,2931,odom,base_link,1.0947797643736257,0.2359780906191374,0.0,0.0,0.0,0.1600128040420687,0.9871149388711502,0.1932597635051162,0.0,0.0
59.07,2932,odom,base_link,1.098447887628603,0.23719728833778142,0.0,0.0,0.0,0.15950117265277608,0.98719773901807,0.19327866931397908,0.0,0.0
59.09,2933,odom,base_link,1.102116999254376,0.2384125874772886,0.0,0.0,0.0,0.1589875673222223,0.9872805849589882,0.19323515195353058,0.0,0.0
59.11,2934,odom,base_link,1.1057830119385732,0.23962271410410543,0.0,0.0,0.0,0.15850508968573632,0.9873581602152872,0.19294302443304578,0.0,0.0
59.13,2935,odom,base_link,1.1094494444781242,0.24082910066870414,0.0,0.0,0.0,0.1580352730194438,0.9874334673696602,0.19301061278157483,0.0,0.0
59.15,2936,odom,base_link,1.1131173945121784,0.2420321050763271,0.0,0.0,0.0,0.1575620903053855,0.9875090823372702,0.19301737817611941,0.0,0.0
59.17,2937,odom,base_link,1.1167861258797513,0.24323145899761506,0.0,0.0,0.0,0.15708503951055902,0.9875850800624553,0.19299651396087503,0.0,0.0
59.19,2938,odom,base_link,1.1204557295724995,0.24442715166690424,0.0,0.0,0.0,0.15660375370491372,0.9876615130324411,0.19299127103809022,0.0,0.0
59.21,2939,odom,base_link,1.124122853713644,0.24561815367167356,0.0,0.0,0.0,0.15614581364211919,0.9877340152500776,0.19269981667906533,0.0,0.0
59.23,2940,odom,base_link,1.1277953300196366,0.24680721560390873,0.0,0.0,0.0,0.1557042174798242,0.9878037237523433,0.1931471455767445,0.0,0.0
59.25,2941,odom,base_link,1.1314658317691628,0.24799200723542478,0.0,0.0,0.0,0.1552539610066667,0.9878745910244582,0.1926851536125599,0.0,0.0
59.27,2942,odom,base_link,1.135129531971144,0.2491708304594965,0.0,0.0,0.0,0.15478628130177174,0.9879479779425477,0.1924088477577638,0.0,0.0
59.29,2943,odom,base_link,1.1387957624075487,0.25034665439886944,0.0,0.0,0.0,0.15432471615471288,0.9880201829840154,0.19253787420137092,0.0,0.0
59.31,2944,odom,base_link,1.1424612412745814,0.25151851713694895,0.0,0.0,0.0,0.15388018589395042,0.9880895143605377,0.19236702129217276,0.0,0.0
59.33,2945,odom,base_link,1.1461279155954447,0.25268717921519984,0.0,0.0,0.0,0.15344367824915262,0.988157395157963,0.19242194070637797,0.0,0.0
59.35,2946,odom,base_link,1.1497961737602147,0.2538527800824695,0.0,0.0,0.0,0.15300814420643058,0.9882249277398867,0.19246152687849605,0.0,0.0
59.37,2947,odom,base_link,1.1534663614143978,0.25501543999815923,0.0,0.0,0.0,0.15257424874753925,0.9882920108040558,0.19250843038498588,0.0,0.0
59.39,2948,odom,base_link,1.157138836129759,0.2561752837364889,0.0,0.0,0.0,0.15214253694473898,0.9883585626947432,0.19259913716946941,0.0,0.0
59.41,2949,odom,base_link,1.1608107404477799,0.2573314987556586,0.0,0.0,0.0,0.15173560471489866,0.9884211178752729,0.1924168303024446,0.0,0.0
59.43,2950,odom,base_link,1.1644835698379608,0.2584847547605389,0.0,0.0,0.0,0.15134049055481108,0.988481692252633,0.19250008710942657,0.0,0.0
59.45,2951,odom,base_link,1.1681584456142124,0.2596354346182413,0.0,0.0,0.0,0.15094757460747402,0.9885417693350752,0.1925648109194381,0.0,0.0
59.47,2952,odom,base_link,1.1718400530486455,0.26078504758518223,0.0,0.0,0.0,0.15056519037192254,0.9886000826665283,0.19292713983843945,0.0,0.0
59.49,2953,odom,base_link,1.175524344782175,0.26193239653495226,0.0,0.0,0.0,0.15018580154136993,0.9886577896397601,0.19289581290046243,0.0,0.0
59.51,2954,odom,base_link,1.1791998368292065,0.26307388526065867,0.0,0.0,0.0,0.14980498265374542,0.9887155643419957,0.19238890593712454,0.0,0.0
59.53,2955,odom,base_link,1.1828681964929084,0.2642100987238898,0.0,0.0,0.0,0.1494325942314909,0.9887719149436065,0.19186136304686385,0.0,0.0
59.55,2956,odom,base_link,1.186527857906692,0.26534066864507094,0.0,0.0,0.0,0.14907473210341585,0.9888259322288705,0.19152286308679078,0.0,0.0
59.57,2957,odom,base_link,1.190189350149497,0.26646891057592703,0.0,0.0,0.0,0.14871952285548776,0.9888794180898074,0.19158481775771763,0.0,0.0
59.59,2958,odom,base_link,1.19385250555446,0.2675947917377543,0.0,0.0,0.0,0.148365925042242,0.9889325317160721,0.19161713974301697,0.0,0.0
59.61,2959,odom,base_link,1.1975163134621627,0.2687180925944657,0.0,0.0,0.0,0.1480429778538892,0.9889809283844421,0.19160763602603692,0.0,0.0
59.63,2960,odom,base_link,1.2011808811261926,0.2698391039093295,0.0,0.0,0.0,0.14773391830854324,0.9890271428940688,0.19160379316600673,0.0,0.0
59.65,2961,odom,base_link,1.2048465594716404,0.2709579484583145,0.0,0.0,0.0,0.14742468836036227,0.9890732840704222,0.19164084357971045,0.0,0.0
59.67,2962,odom,base_link,1.208512823012808,0.27207446335282887,0.0,0.0,0.0,0.1471144129412299,0.989119481915586,0.1916057433539179,0.0,0.0
59.69,2963,odom,base_link,1.2121796145116421,0.2731886190479371,0.0,0.0,0.0,0.14680291197776846,0.9891657621626658,0.19162523604725512,0.0,0.0
59.71,2964,odom,base_link,1.2178570762858505,0.27491037096249304,0.0,0.0,0.0,0.14665144458104332,0.9891882297127748,0.38165020485625456,0.0,0.0
59.73,2965,odom,base_link,1.22726689131216,0.2777623155720154,0.0,0.0,0.0,0.14656958032084214,0.9892003629824305,0.4916252503690436,0.0,0.0
59.75,2966,odom,base_link,1.2366771649648431,0.28061269673850175,0.0,0.0,0.0,0.1464875460552862,0.9892125145036836,0.49162535247907513,0.0,0.0
59.77,2967,odom,base_link,1.246087920494182,0.2834615170204122,0.0,0.0,0.0,0.1464052399676259,0.9892246993024496,0.4916246673119521,0.0,0.0
59.79,2968,odom,base_link,1.2554912221616117,0.2863063961979549,0.0,0.0,0.0,0.14633145129667818,0.9892356172123039,0.49082550281517345,0.0,0.0
59.81,2969,odom,base_link,1.264869382065894,0.28914230490459103,0.0,0.0,0.0,0.14626765156270044,0.9892450526064472,0.48936574782920716,0.0,0.0
59.83,2970,odom,base_link,1.2742351904133211,0.2919732060960448,0.0,0.0,0.0,0.14621053863279387,0.9892534955170531,0.48911689190923624,0.0,0.0
59.85,2971,odom,base_link,1.2835980009964583,0.29480219001344127,0.0,0.0,0.0,0.14616992271195925,0.9892594976518445,0.4890291550790241,0.0,0.0
59.87,2972,odom,base_link,1.2929579632659285,0.2976296115918087,0.0,0.0,0.0,0.14614078932633418,0.9892638018724207,0.4888762208751566,0.0,0.0
59.89,2973,odom,base_link,1.3023151340411996,0.30045568164037556,0.0,0.0,0.0,0.14612071749011643,0.9892667668127609,0.4886929941456678,0.0,0.0
59.91,2974,odom,base_link,1.3116124529883202,0.3032633500861773,0.0,0.0,0.0,0.14611030370612965,0.9892683049359777,0.48407332030804306,0.0,0.0
59.93,2975,odom,base_link,1.3208811947996784,0.30606223439137653,0.0,0.0,0.0,0.1461034180207886,0.989269321895025,0.48413214839974106,0.0,0.0
59.95,2976,odom,base_link,1.3301525343503298,0.30886177261252323,0.0,0.0,0.0,0.1460976097380591,0.9892701796924972,0.48427578153918993,0.0,0.0
59.97,2977,odom,base_link,1.3394267730882634,0.3116620776869666,0.0,0.0,0.0,0.14609276305791677,0.9892708954488166,0.4844276558014452,0.0,0.0
59.99,2978,odom,base_link,1.3487047361903577,0.3144634219906935,0.0,0.0,0.0,0.1460894751555413,0.9892713809914742,0.4846445642810119,0.0,0.0
60.01,2979,odom,base_link,1.3579384214039114,0.31725140843096794,0.0,0.0,0.0,0.14609562400724554,0.9892704729475825,0.4810352227092255,0.0,0.0
60.03,2980,odom,base_link,1.3671485698951193,0.3200324402151839,0.0,0.0,0.0,0.14610151041554978,0.989269603623954,0.481096786159119,0.0,0.0
60.05,2981,odom,base_link,1.376361501828813,0.322814388878603,0.0,0.0,0.0,0.14610376555635707,0.9892692705680557,0.481202608548437,0.0,0.0
60.07,2982,odom,base_link,1.385575209293059,0.3255966072552337,0.0,0.0,0.0,0.14610506080526844,0.9892690792737276,0.481236144980424,0.0,0.0
60.09,2983,odom,base_link,1.394788958878373,0.3283788505421798,0.0,0.0,0.0,0.14610480155541766,0.98926911756228,0.48123269776794186,0.0,0.0
60.11,2984,odom,base_link,1.403972572848522,0.33115217551675197,0.0,0.0,0.0,0.14613024703032432,0.9892653591948201,0.47892006995736736,0.0,0.0
60.13,2985,odom,base_link,1.4131401216573907,0.3339212705401603,0.0,0.0,0.0,0.14615813778780884,0.9892612388840472,0.4788279066249682,0.0,0.0
60.15,2986,odom,base_link,1.422306263146044,0.33669046789354495,0.0,0.0,0.0,0.14618402718512769,0.9892574135157834,0.47874468849776786,0.0,0.0
60.17,2987,odom,base_link,1.4314718438749123,0.33946006791175165,0.0,0.0,0.0,0.14621473835290794,0.9892528747940997,0.47875482113703993,0.0,0.0
60.19,2988,odom,base_link,1.4406362145377614,0.3422298848152757,0.0,0.0,0.0,0.14623948672033524,0.9892492165899213,0.47866763893759134,0.0,0.0
60.21,2989,odom,base_link,1.4497826963616531,0.3449947840539263,0.0,0.0,0.0,0.14626706399133677,0.9892451394833104,0.477352227322703,0.0,0.0
60.23,2990,odom,base_link,1.4589186566268728,0.3477570675024682,0.0,0.0,0.0,0.14629174334215173,0.9892414901478375,0.47719786492416183,0.0,0.0
60.251,2991,odom,base_link,1.4680541383305685,0.35051960777134256,0.0,0.0,0.0,0.14630738856988906,0.9892391763622483,0.47722832819456806,0.0,0.0
60.27,2992,odom,base_link,1.4771913929294558,0.3532829408847557,0.0,0.0,0.0,0.14631795832337016,0.9892376130496052,0.47730997570660827,0.0,0.0
60.29,2993,odom,base_link,1.4863299232626919,0.3560468506481753,0.0,0.0,0.0,0.14632634850577605,0.9892363720228681,0.4773910902743931,0.0,0.0
60.31,2994,odom,base_link,1.495466872652055,0.3588105457937691,0.0,0.0,0.0,0.14634858845397228,0.9892330820678865,0.47722470295932273,0.0,0.0
60.33,2995,odom,base_link,1.5046031677335394,0.36157455471130895,0.0,0.0,0.0,0.14637209875171556,0.9892296036345748,0.4772774866410482,0.0,0.0
60.35,2996,odom,base_link,1.5137404613468455,0.36433928449605923,0.0,0.0,0.0,0.14639015749093204,0.9892269313912658,0.477331517747304,0.0,0.0
60.37,2997,odom,base_link,1.5228793412228452,0.36710483790773457,0.0,0.0,0.0,0.1464080275889316,0.9892242867305263,0.4774573837896593,0.0,0.0
60.39,2998,odom,base_link,1.5320201303218044,0.36987136850351293,0.0,0.0,0.0,0.14642934930412868,0.9892211308207935,0.4775375514931127,0.0,0.0
60.41,2999,odom,base_link,1.5431625102942264,0.37324691623790857,0.0,0.0,0.0,0.14671861574386516,0.9891782689658138,0.666916649053351,0.0,0.0
60.43,3000,odom,base_link,1.5576099874746485,0.3776355983993912,0.0,0.0,0.0,0.14712432889473426,0.9891180070382269,0.7549444445965062,0.0,0.0
60.45,3001,odom,base_link,1.5720542747103268,0.38203624242299233,0.0,0.0,0.0,0.14752876675105855,0.9890577652396809,0.7549887658658053,0.0,0.0
60.47,3002,odom,base_link,1.5864947211020555,0.38644862877859554,0.0,0.0,0.0,0.1479338843254859,0.9889972527102255,0.7549642830197104,0.0,0.0
60.49,3003,odom,base_link,1.6009211054403103,0.3908699825345814,0.0,0.0,0.0,0.14835880345285854,0.9889336001158198,0.7545544903733384,0.0,0.0
60.51,3004,odom,base_link,1.6133441415201561,0.3946905580363523,0.0,0.0,0.0,0.14904329417568402,0.9888306712785868,0.564926177171832,0.0,0.0
60.53,3005,odom,base_link,1.6223910619504796,0.3974893294429988,0.0,0.0,0.0,0.14985603408528334,0.9887078279493039,0.47349778866572245,0.0,0.0
60.55,3006,odom,base_link,1.6314335729583231,0.4003030359472953,0.0,0.0,0.0,0.15066881295054177,0.988584295244505,0.473510452805859,0.0,0.0
60.57,3007,odom,base_link,1.6404674888329396,0.4031303609942357,0.0,0.0,0.0,0.1514721538604212,0.9884615251009444,0.47288915208062476,0.0,0.0
60.59,3008,odom,base_link,1.6494929052784326,0.40597093701098697,0.0,0.0,0.0,0.1522613471632719,0.9883402663860386,0.4731901863397784,0.0,0.0
60.61,3009,odom,base_link,1.658416862202059,0.4087953027188167,0.0,0.0,0.0,0.15306705396721504,0.9882158048674377,0.465710515984075,0.0,0.0
60.63,3010,odom,base_link,1.667291988489116,0.4116203145828806,0.0,0.0,0.0,0.15388038049994152,0.9880894840535411,0.4656470786000403,0.0,0.0
60.65,3011,odom,base_link,1.6761609296947437,0.4144594102945109,0.0,0.0,0.0,0.1546913090504559,0.9879628529981562,0.46563273012406625,0.0,0.0
60.67,3012,odom,base_link,1.685025847499157,0.41731330389748333,0.0,0.0,0.0,0.1555044442371334,0.9878351926422242,0.46560889624311963,0.0,0.0
60.69,3013,odom,base_link,1.693885482621419,0.42018156374892107,0.0,0.0,0.0,0.15631701251204896,0.9877069360895001,0.4657444435524408,0.0,0.0
