Time,header.seq,header.frame_id,child_frame_id,pose.x,pose.y,pose.z,orientation.x,orientation.y,orientation.z,orientation.w,linear.x,linear.y,linear.z,angular.x,angular.y,angular.z
52.673,2604,odom,base_link,0.0032066822201688686,6.525128928832828e-05,-2.0825240362736184e-07,0.00031052449857455936,5.7627476934034525e-05,0.019097313656585808,0.99981757979379,6.77043344842349e-05,0.0,0.0
52.687,2605,odom,base_link,0.0032076970692988776,6.529010613015475e-05,-2.083216151059053e-07,0.0003581029406242909,3.0443120287981317e-05,0.019139949809070675,0.9998167497880832,6.770782696704587e-05,0.0,0.0
52.708,2606,odom,base_link,0.003209050280845349,6.534195740019575e-05,-2.0839180757338492e-07,0.00035097402694671574,5.850714066800241e-05,0.01916252117653889,0.9998163187187463,6.771251374093908e-05,0.0,0.0
52.727,2607,odom,base_link,0.0032104035841092,6.539385865061035e-05,-2.0849450365419797e-07,0.00035604977981759997,2.2357905775548247e-05,0.019171577080353025,0.9998161447790942,6.771719781780688e-05,0.0,0.0
52.747,2608,odom,base_link,0.0032117569802448303,6.544578150884414e-05,-2.0858292406349406e-07,0.0003331916198927333,1.4249729536339994e-05,0.019171380879669093,0.9998161565685245,6.772188153381372e-05,0.0,0.0
52.768,2609,odom,base_link,0.0032131104688270305,6.549773773553674e-05,-2.0867327087259087e-07,0.00035650322278679345,2.1023269578971964e-06,0.019214513200340167,0.99981532063852,6.772656541567006e-05,0.0,0.0
52.787,2610,odom,base_link,0.0032144640469198645,6.554980410050831e-05,-2.0873948363412868e-07,0.00035219652088589,3.8460726658943176e-05,0.01923546873655329,0.9998149184828501,6.773124958324674e-05,0.0,0.0
52.807,2611,odom,base_link,0.0032158177166188807,6.560192614024622e-05,-2.0882165542921823e-07,0.0003309089687012226,4.349265388003887e-05,0.019257062205278706,0.9998145098781401,6.773593406783516e-05,0.0,0.0
52.828,2612,odom,base_link,0.003217171476508316,6.565414078760913e-05,-2.0891922831194998e-07,0.00035710596087434605,1.9063630533090797e-05,0.019317577124662484,0.9998133342409189,6.774061887579215e-05,0.0,0.0
52.847,2613,odom,base_link,0.0032185253253939413,6.570647907606128e-05,-2.0900166216257588e-07,0.00034335887195368914,2.4825155471641122e-05,0.019312490475811787,0.9998134371971694,6.77453040059977e-05,0.0,0.0
52.868,2614,odom,base_link,0.0032198792694805864,6.575878045406778e-05,-2.090864657436022e-07,0.00035137339598039755,2.7047129310866076e-05,0.01928412636345996,0.9998139818364151,6.774998946074854e-05,0.0,0.0
52.887,2615,odom,base_link,0.0032212333099321216,6.58110149237508e-05,-2.091647567811981e-07,0.0003275672386898731,4.0628854423371625e-05,0.01926294185300159,0.9998143978360025,6.775467523886087e-05,0.0,0.0
52.907,2616,odom,base_link,0.0032225874467219865,6.5863183226844e-05,-2.0925230743672138e-07,0.0003198956613409067,3.543951835982255e-05,0.01922411419015751,0.999815147837044,6.775936134189796e-05,0.0,0.0
52.928,2617,odom,base_link,0.003223941680277481,6.591527434813679e-05,-2.0934325896622346e-07,0.0003381270567564684,2.3987881407123448e-05,0.019222024664837644,0.9998151823524484,6.776404776731717e-05,0.0,0.0
52.947,2618,odom,base_link,0.0032252960085788363,6.59673409287876e-05,-2.0942391215571582e-07,0.0003465973683227425,3.154629551836514e-05,0.019181498948328626,0.9998159575507838,6.776873451607553e-05,0.0,0.0
52.967,2619,odom,base_link,0.0032266504337608113,6.601932747588722e-05,-2.095182848103623e-07,0.0003378757787639693,1.2111712285831753e-05,0.01918650564346225,0.9998158648943604,6.777342158863995e-05,0.0,0.0
52.987,2620,odom,base_link,0.00322800495151409,6.607134644494425e-05,-2.0958531424090107e-07,0.00034314547299482153,4.765954279535854e-05,0.01920073443154001,0.9998155888847912,6.77781089841343e-05,0.0,0.0
53.007,2621,odom,base_link,0.003229359563303307,6.61233597451174e-05,-2.0967348728049236e-07,0.00037366603538182836,4.1641259166700175e-05,0.019152532060773823,0.9998165027420582,6.778279670433911e-05,0.0,0.0
53.028,2622,odom,base_link,0.003230714272204754,6.617528740081371e-05,-2.097607245895393e-07,0.0003573749950887564,3.674334624652712e-05,0.01917046626439566,0.9998161651805021,6.778748474905705e-05,0.0,0.0
53.047,2623,odom,base_link,0.0032320690731527575,6.622726162360138e-05,-2.0985973456980234e-07,0.0003700209159884539,9.224841862304716e-06,0.019165595154337273,0.9998162545997159,6.77921731159373e-05,0.0,0.0
53.068,2624,odom,base_link,0.003233423968935907,6.627920997653321e-05,-2.0992646514688561e-07,0.0003709360138800149,4.39517242324498e-05,0.01914844410158109,0.9998165819605154,6.779686180826405e-05,0.0,0.0
53.087,2625,odom,base_link,0.0032347789607965753,6.633109999732808e-05,-2.10026679268799e-07,0.00030877722077389015,1.1206958980079458e-05,0.019108178761000152,0.9998173743416693,6.780155082435071e-05,0.0,0.0
53.107,2626,odom,base_link,0.0032361340492993947,6.638291719383748e-05,-2.1010692254601655e-07,0.0003327822521704238,1.9758978400184522e-05,0.019117537389383762,0.9998171876046744,6.780624016333182e-05,0.0,0.0
53.128,2627,odom,base_link,0.003237489229089906,6.643480154701838e-05,-2.1018323508111333e-07,0.00035358890971897355,3.6674783090602774e-05,0.0191688226815368,0.9998161980418435,6.781092982478567e-05,0.0,0.0
53.147,2628,odom,base_link,0.0032388444980739417,6.648680775350682e-05,-2.1027254585702564e-07,0.000339826802559457,2.8052035055005026e-05,0.019188681434606187,0.9998158221570754,6.78156198107422e-05,0.0,0.0
53.168,2629,odom,base_link,0.0032401998582753393,6.653888311677686e-05,-2.1035618894013754e-07,0.0003445908809120026,3.2150356237854085e-05,0.01923117297717846,0.9998150039929393,6.782031011997512e-05,0.0,0.0
53.188,2630,odom,base_link,0.003241623082715828,6.659368598501527e-05,-2.1044547343126166e-07,0.0003744866937826332,3.255439777780742e-05,0.019264291807162926,0.9998143556486353,6.782523399035329e-05,0.0,0.0
53.207,2631,odom,base_link,0.003242910847422214,6.66433688841495e-05,-2.1053025606039675e-07,0.000361366139180893,2.4852256880725006e-05,0.019319397492804553,0.9998132974097682,6.782969171222175e-05,0.0,0.0
53.228,2632,odom,base_link,0.0032442664763453455,6.669577983094998e-05,-2.1060768380099627e-07,0.0003411637520417219,3.910684851227797e-05,0.019312646221628958,0.9998134344835874,6.78343829944777e-05,0.0,0.0
53.247,2633,odom,base_link,0.003245622199621095,6.674817901738173e-05,-2.1071036716582578e-07,0.00032503640176811466,3.361156065481501e-06,0.019323689547062987,0.9998132272391325,6.783907460039492e-05,0.0,0.0
53.267,2634,odom,base_link,0.0032469780148848128,6.680062791284448e-05,-2.1077009334515705e-07,0.0003496306389744025,5.3599024221291625e-05,0.019348356458272733,0.9998127404608947,6.784376653030153e-05,0.0,0.0
53.288,2635,odom,base_link,0.003248333922640049,6.685311343772791e-05,-2.1086671541508024e-07,0.00034785099397456127,3.0371269071259994e-05,0.019327652273751203,0.9998131425095675,6.784845878546724e-05,0.0,0.0
53.307,2636,odom,base_link,0.0032496899257150706,6.69055627710371e-05,-2.1094350356566748e-07,0.0003397622896823905,4.677434021856216e-05,0.019336655071171445,0.9998129705822013,6.785315136092403e-05,0.0,0.0
53.328,2637,odom,base_link,0.0032510460207989676,6.695806157031293e-05,-2.110489864791657e-07,0.0003690034012080786,7.0534469393998675e-06,0.019366955766522823,0.9998123748039311,6.785784426310749e-05,0.0,0.0
53.347,2638,odom,base_link,0.0032524022063113566,6.701065089772501e-05,-2.1111807025727727e-07,0.00034641492001953866,3.753758454021411e-05,0.019403307690298237,0.9998116773864507,6.786253748746927e-05,0.0,0.0
53.367,2639,odom,base_link,0.0032537584815188684,6.706334946867511e-05,-2.1120159147978147e-07,0.0003443445066150419,3.8595996079353194e-05,0.01944831562183222,0.9998108035806992,6.786723103840261e-05,0.0,0.0
53.388,2640,odom,base_link,0.0032551148468393724,6.711614655562264e-05,-2.1130257058825056e-07,0.000352602130014479,6.031569548476791e-06,0.01945491800754076,0.9998106729779784,6.787192491252346e-05,0.0,0.0
53.407,2641,odom,base_link,0.003256471307706297,6.716890276024359e-05,-2.1138549430553527e-07,0.0003475439715523711,1.012527515878027e-05,0.019383063706292898,0.9998120703172294,6.787661910924928e-05,0.0,0.0
53.427,2642,odom,base_link,0.0032578278686990715,6.722150010607557e-05,-2.1145034427798725e-07,0.0003365869476517323,5.065899075437466e-05,0.01936621497515647,0.9998123993332095,6.788131363279263e-05,0.0,0.0
53.448,2643,odom,base_link,0.003259252361413968,6.727666035405179e-05,-2.115588201029377e-07,0.0003345845470235732,1.015868379966881e-05,0.019303601429377645,0.9998136120906925,6.788624192529946e-05,0.0,0.0
53.467,2644,odom,base_link,0.0032605412827370213,6.732643230811964e-05,-2.1163165416667397e-07,0.00035707690992505453,3.0414715423679158e-05,0.019283379829202977,0.9998139941175999,6.789070364963276e-05,0.0,0.0
53.487,2645,odom,base_link,0.003261898136092397,6.737875927182622e-05,-2.1173482196296645e-07,0.0003420540695272906,-4.58360153596394e-06,0.01923949624635229,0.9998148452399527,6.789539914564e-05,0.0,0.0
53.508,2646,odom,base_link,0.003263322936195914,6.74336254338872e-05,-2.1180549529436177e-07,0.0003359836205106788,3.2111265521381545e-05,0.019264365169268226,0.9998143679296163,6.790032845802506e-05,0.0,0.0
53.527,2647,odom,base_link,0.003264612126893359,6.748335789723767e-05,-2.1188623347302615e-07,0.00036097743898839046,3.4489715977832795e-05,0.019309556633994147,0.9998134873706929,6.790479110732649e-05,0.0,0.0
53.547,2648,odom,base_link,0.003265969256247509,6.753583945864512e-05,-2.1196784641645093e-07,0.0003240943564767915,4.150970820863167e-05,0.019360288742711104,0.9998125186551681,6.790948757191707e-05,0.0,0.0
53.567,2649,odom,base_link,0.003267326473745185,6.758847233717312e-05,-2.1205646977911801e-07,0.0003443447599254933,3.6332519250415266e-05,0.019423531577728356,0.9998112854572522,6.791418436319835e-05,0.0,0.0
53.587,2650,odom,base_link,0.0032686837788426966,6.764127025481597e-05,-2.1215430084317006e-07,0.0003671791324203595,1.2889976436498512e-05,0.019470972096169954,0.9998103551468965,6.791888147885908e-05,0.0,0.0
53.608,2651,odom,base_link,0.0032700411753254824,6.769413587462826e-05,-2.1223361734892133e-07,0.00033355760818256605,2.4697754497603623e-05,0.019433205647131902,0.9998111014824848,6.792357891994785e-05,0.0,0.0
53.627,2652,odom,base_link,0.00327139866859625,6.774693042015813e-05,-2.1230935264363083e-07,0.0003033472779251648,4.3439547362395496e-05,0.019446682929218643,0.9998108484190823,6.792827668255093e-05,0.0,0.0
53.647,2653,odom,base_link,0.0032727562544483655,6.779976216400635e-05,-2.1240255195363542e-07,0.0003332838247394023,2.898385231700621e-05,0.01944187739823084,0.9998109328693404,6.793297477137901e-05,0.0,0.0
53.668,2654,odom,base_link,0.003274113935080648,6.785257479786588e-05,-2.1249267052573275e-07,0.00035052624716815317,2.0015372606891925e-05,0.019432634858897985,0.9998111068762818,6.793767318436059e-05,0.0,0.0
53.687,2655,odom,base_link,0.0032754717109435144,6.7905356909787e-05,-2.12575236318726e-07,0.0003380560288263824,2.3249133032597813e-05,0.019408170356266217,0.9998115863006496,6.794237192264532e-05,0.0,0.0
53.707,2656,odom,base_link,0.003276829583211912,6.795807835023781e-05,-2.1266141684800447e-07,0.0003653741440390834,1.9908662238624303e-05,0.019390361543706425,0.9998119223056826,6.794707098569827e-05,0.0,0.0
53.728,2657,odom,base_link,0.0032781875528310285,6.801071485058726e-05,-2.1273984328385903e-07,0.0003358481889674956,3.1830460471014846e-05,0.019314905024996127,0.9998133929072419,6.79517703744055e-05,0.0,0.0
53.747,2658,odom,base_link,0.003279545621494353,6.806322261342441e-05,-2.1282897274724424e-07,0.0003563523278829664,2.4453258670623866e-05,0.01934966931565623,0.9998127138181587,6.795647008583728e-05,0.0,0.0
53.767,2659,odom,base_link,0.0032809037796785803,6.8115847850371e-05,-2.129163948930961e-07,0.0003346099994989863,2.107560269256778e-05,0.01938768674442528,0.999811984922499,6.79611701207698e-05,0.0,0.0
53.788,2660,odom,base_link,0.0032823299421476295,6.817122874173463e-05,-2.129886327000049e-07,0.00031478529770498847,5.910227516244298e-05,0.01945121302360149,0.9998107559578703,6.796610420162496e-05,0.0,0.0
53.807,2661,odom,base_link,0.003283620363516342,6.822147843770754e-05,-2.1308744594104096e-07,0.000348995255059435,2.2479799888398904e-05,0.019476400619815266,0.9998102557564944,6.797057116521449e-05,0.0,0.0
53.828,2662,odom,base_link,0.0032849787926271094,6.827439497083022e-05,-2.1316673584709199e-07,0.00033834002018898364,3.451836254058228e-05,0.019436547164581812,0.9998110346304607,6.79752721741737e-05,0.0,0.0
53.847,2663,odom,base_link,0.003286337318421118,6.832724501040824e-05,-2.1325160869059694e-07,0.00038162184937384465,3.517136100031058e-05,0.01945742424307727,0.9998106129510549,6.797997350972633e-05,0.0,0.0
53.867,2664,odom,base_link,0.0032876959359482874,6.838015589382479e-05,-2.1333624087575136e-07,0.00033910175767443477,3.438253910499058e-05,0.01946512934404599,0.9998104783244965,6.798467516848608e-05,0.0,0.0
53.888,2665,odom,base_link,0.0032890546477859135,6.843306157202789e-05,-2.1342511414229498e-07,0.00035240745978333993,2.590138071030657e-05,0.019439921407805975,0.9998109644296561,6.798937715210671e-05,0.0,0.0
53.907,2666,odom,base_link,0.0032904134544970228,6.848594776369381e-05,-2.135157815481578e-07,0.0003446077271440878,1.3356352086075417e-05,0.019479202873571574,0.999810202849787,6.799407946138098e-05,0.0,0.0
53.927,2667,odom,base_link,0.0032917723495646334,6.853898187408533e-05,-2.13585019206185e-07,0.00034563142652336773,4.2950352154089466e-05,0.019557671105686198,0.9998086697939291,6.799878209450858e-05,0.0,0.0
53.948,2668,odom,base_link,0.0032931992828285094,6.85948674927204e-05,-2.1368833328276574e-07,0.0003602599299394772,1.0610392179404295e-05,0.019595464773438685,0.9998079254839478,6.800371890286465e-05,0.0,0.0
53.967,2669,odom,base_link,0.0032944904032554466,6.864553144834054e-05,-2.1375868050160725e-07,0.0003279684317421542,3.235950194877975e-05,0.019643603504982746,0.9998069914893121,6.800818833356283e-05,0.0,0.0
53.987,2670,odom,base_link,0.003295849564416567,6.869898180099689e-05,-2.1385647800373146e-07,0.00035321826051801453,6.025822644602396e-06,0.01966548736578236,0.9998065531927743,6.801289193991532e-05,0.0,0.0
54.008,2671,odom,base_link,0.003297276784316945,6.875511998963181e-05,-2.139417942454257e-07,0.00032781840467747383,8.866208490211003e-06,0.019626725447176703,0.9998073234902339,6.801782977081328e-05,0.0,0.0
54.027,2672,odom,base_link,0.003298568171087245,6.880583434272755e-05,-2.140192912868908e-07,0.000330434496635968,1.8820239359901646e-05,0.019620555654806523,0.9998074435883335,6.802230012874489e-05,0.0,0.0
54.048,2673,odom,base_link,0.0032999955923045782,6.88618812268064e-05,-2.141072541567058e-07,0.00037113080295451343,1.9396093346400903e-05,0.019620036562009033,0.9998074394857361,6.80272386412383e-05,0.0,0.0
54.067,2674,odom,base_link,0.003301287158127758,6.8912591966428e-05,-2.1418497012133501e-07,0.0003366478092882874,2.698633743312049e-05,0.01962070748409523,0.9998074383489122,6.803170961799884e-05,0.0,0.0
54.088,2675,odom,base_link,0.003302646793588621,6.896595340080701e-05,-2.1425074862432042e-07,0.00033306096787977653,6.452318025966344e-05,0.019588206952158533,0.9998080751101934,6.803641484951429e-05,0.0,0.0
54.107,2676,odom,base_link,0.003304006527214084,6.90192131795371e-05,-2.143625516115694e-07,0.00034521408236864006,1.1556323619459405e-05,0.019538770456729065,0.9998090403385678,6.804112040624298e-05,0.0,0.0
54.127,2677,odom,base_link,0.0033053663590503976,6.90723702140331e-05,-2.1444065979349267e-07,0.0003249370977640941,2.47640874107356e-05,0.01952813370377263,0.9998092547064517,6.804582628662768e-05,0.0,0.0
54.147,2678,odom,base_link,0.0033067262857597794,6.912550980368031e-05,-2.1453211382835864e-07,0.00032192794145818063,1.1834574136663676e-05,0.019521339572395845,0.9998093885954674,6.805053249208295e-05,0.0,0.0
54.167,2679,odom,base_link,0.003308086308072064,6.917861350262333e-05,-2.1459851448187068e-07,0.0003458444868814258,4.902752647969461e-05,0.019487851074465122,0.9998100327804236,6.805523902440258e-05,0.0,0.0
54.188,2680,odom,base_link,0.0033094464278647356,6.923163320991583e-05,-2.1468750762662225e-07,0.00029893193010013585,4.0852164242131805e-05,0.019462762122171587,0.9998105369825714,6.805994588228658e-05,0.0,0.0
54.207,2681,odom,base_link,0.0033108066438408087,6.92846023233643e-05,-2.1476928435497587e-07,0.00031926734980517607,4.842657488814351e-05,0.019453864706603274,0.9998107035190228,6.806465306285525e-05,0.0,0.0
54.228,2682,odom,base_link,0.0033122349736425653,6.934017688315551e-05,-2.1487569543151128e-07,0.00035173700637361645,1.3379280830101846e-05,0.01941456586762625,0.9998114575930029,6.806959464642669e-05,0.0,0.0
54.247,2683,odom,base_link,0.003313527365875674,6.939034961776868e-05,-2.149537651747241e-07,0.0003410782362319821,2.2104251658784347e-05,0.019363091776370966,0.9998124593412,6.807406840089304e-05,0.0,0.0
54.268,2684,odom,base_link,0.0033148878766200815,6.944300712927171e-05,-2.1505139487991867e-07,0.0003408949392473461,-2.662151209361374e-06,0.01928863686005071,0.9998138988189924,6.807877655753966e-05,0.0,0.0
54.287,2685,odom,base_link,0.0033162484884951132,6.94954863461447e-05,-2.1512274092332965e-07,0.0003555410653069674,2.557043191567101e-05,0.019245761937579837,0.9998147196276648,6.808348504046552e-05,0.0,0.0
54.308,2686,odom,base_link,0.003317609197081821,6.954790143792642e-05,-2.1519770673598837e-07,0.0003305042700904256,4.579268802823493e-05,0.019262943670587736,0.9998143966112415,6.808819384751183e-05,0.0,0.0
54.327,2687,odom,base_link,0.0033189699966016313,6.960040250883424e-05,-2.1529581874001134e-07,0.0003705906846235119,2.1701618748317273e-05,0.01932113060555188,0.999813260616055,6.809290297988101e-05,0.0,0.0
54.348,2688,odom,base_link,0.0033203308840979205,6.965306614864736e-05,-2.1536752441433082e-07,0.0003546407409015377,4.810007301727165e-05,0.01937609357821878,0.9998122018229103,6.809761243703091e-05,0.0,0.0
54.367,2689,odom,base_link,0.003321691860450298,6.970586931416868e-05,-2.1545539802033375e-07,0.0003656200202142776,4.2261371765663936e-05,0.019414427539734744,0.999811454494937,6.81023222209201e-05,0.0,0.0
54.387,2690,odom,base_link,0.0033230529271355285,6.975877386857781e-05,-2.1553904869678788e-07,0.00033358695862910207,4.3268797443648895e-05,0.01944568917012796,0.9998108581228006,6.810703232917734e-05,0.0,0.0
54.408,2691,odom,base_link,0.003324414084397389,6.981177349129293e-05,-2.156438729636275e-07,0.00033964022867815876,3.5797051538861495e-06,0.01948596993509638,0.9998100727675179,6.811174276288008e-05,0.0,0.0
54.427,2692,odom,base_link,0.003325775332543934,6.986486046462542e-05,-2.1571709422731656e-07,0.0003339156085220734,2.6075507337278633e-05,0.019489083263574854,0.9998100136795889,6.811645352141307e-05,0.0,0.0
54.448,2693,odom,base_link,0.003327136673494547,6.991798545553765e-05,-2.1579559884614997e-07,0.00035333584667581207,3.8809843097228716e-05,0.019534504932523306,0.9998091201647527,6.812116460335931e-05,0.0,0.0
54.467,2694,odom,base_link,0.0033284981037143484,6.997123911993911e-05,-2.158703765109498e-07,0.00033945713436324973,5.868767958308177e-05,0.01957159098035292,0.9998083987200288,6.812587601249195e-05,0.0,0.0
54.487,2695,odom,base_link,0.003329859626318601,7.002454183630866e-05,-2.1596264238508634e-07,0.0003512927410502934,4.4576245874449694e-05,0.019538292898536917,0.9998090466268944,6.813058774622632e-05,0.0,0.0
54.508,2696,odom,base_link,0.0033312212453658232,7.007779001330646e-05,-2.1605767051109252e-07,0.0003596809269121158,2.4558268005842333e-05,0.019559109534195814,0.9998086373205383,6.813529980772952e-05,0.0,0.0
54.527,2697,odom,base_link,0.003332582957065003,7.013108077694852e-05,-2.1613969033877685e-07,0.0003408918291069754,2.937597073586051e-05,0.019542437255263223,0.9998089697916983,6.814001219412484e-05,0.0,0.0
54.548,2698,odom,base_link,0.003333944765994785,7.01842971582742e-05,-2.1623357356216938e-07,0.0003332741559952283,1.1487112871530932e-05,0.019493011279336416,0.999809937591964,6.814472490507222e-05,0.0,0.0
54.567,2699,odom,base_link,0.003335306672830752,7.023742199497603e-05,-2.163188153559198e-07,0.000343009128876912,1.106899869241695e-05,0.019498201257889154,0.9998098331032366,6.814943794265344e-05,0.0,0.0
54.587,2700,odom,base_link,0.003336668671801115,7.029060323544771e-05,-2.164070242332643e-07,0.0003364457086519576,4.299391057567236e-06,0.019546331763204083,0.9998088955897538,6.815415130456974e-05,0.0,0.0
54.608,2701,odom,base_link,0.0033380307604847664,7.034390293894024e-05,-2.1648960569457424e-07,0.0003738963621993217,9.067062359176665e-06,0.019568737239300405,0.9998084439742234,6.815886499410906e-05,0.0,0.0
54.627,2702,odom,base_link,0.0033393929414620967,7.039725513054569e-05,-2.165702792381857e-07,0.0003551730435095063,1.7058276715159164e-05,0.019580219263846215,0.999808225898699,6.816357900510511e-05,0.0,0.0
54.647,2703,odom,base_link,0.003340755214613485,7.045066296570618e-05,-2.1666154170133797e-07,0.0003264176608228548,4.716064609544674e-06,0.01961940150056878,0.9998074677226756,6.816829334232938e-05,0.0,0.0
54.668,2704,odom,base_link,0.0033421175788888964,7.050415339339352e-05,-2.167284444761363e-07,0.00032513950985667213,4.104763061246417e-05,0.019616015535492956,0.9998075337453216,6.81730080081003e-05,0.0,0.0
54.687,2705,odom,base_link,0.0033434800373643996,7.055764805063186e-05,-2.1681467908617337e-07,0.0003327638258276671,3.9321800869981204e-05,0.019635025874970128,0.9998071581464705,6.817772299693154e-05,0.0,0.0
54.708,2706,odom,base_link,0.0033448425883983415,7.061118895630974e-05,-2.1691125604038704e-07,0.0003653228732749873,1.7482980071320317e-05,0.019633901960695064,0.9998071694718644,6.818243831164917e-05,0.0,0.0
54.727,2707,odom,base_link,0.0033462052340262867,7.06647245300863e-05,-2.170005655619081e-07,0.0003047687326966973,7.5216258930466215e-06,0.019631147274553944,0.9998072439806233,6.81871539525342e-05,0.0,0.0
54.747,2708,odom,base_link,0.003347567972701051,7.07182942890524e-05,-2.1708327850182198e-07,0.00037552891599102167,1.3460611115075143e-05,0.019677819894693804,0.999806302341127,6.819186991972676e-05,0.0,0.0
54.768,2709,odom,base_link,0.0033489989455163125,7.077465276851614e-05,-2.171778850335599e-07,0.0003352190115706754,-3.2844039756021887e-06,0.019679012377574738,0.9998062932834892,6.81968207251608e-05,0.0,0.0
54.787,2710,odom,base_link,0.003350293725500594,7.082563054716219e-05,-2.1725487404496897e-07,0.0003303533182272014,7.830853493243473e-06,0.019663482563291618,0.9998066004277257,6.820130283164449e-05,0.0,0.0
54.807,2711,odom,base_link,0.0033516567439184513,7.087928830295781e-05,-2.1732953660422527e-07,0.000355408713144557,2.5983720385891526e-05,0.019697092194255538,0.9998059299527003,6.820601977446603e-05,0.0,0.0
54.827,2712,odom,base_link,0.0033530198527921304,7.093304650862514e-05,-2.1741328260033344e-07,0.0003095683185088374,2.4990560255820174e-05,0.019729197335937594,0.9998053122060352,6.821073704445421e-05,0.0,0.0
54.847,2713,odom,base_link,0.0033543830539851313,7.098685803145985e-05,-2.1749278705947915e-07,0.00031835513821959146,3.359993562422075e-05,0.019713177105002814,0.9998056251939559,6.821545464124038e-05,0.0,0.0
54.868,2714,odom,base_link,0.0033557463520816014,7.10406068026415e-05,-2.1757799493774917e-07,0.0003100576874795957,3.1191155308020256e-05,0.01967290253596848,0.999806421162193,6.82201725624622e-05,0.0,0.0
54.887,2715,odom,base_link,0.0033571097483834577,7.109425985878559e-05,-2.1765851981520122e-07,0.0003214315334818797,3.88602307209152e-05,0.01964820600738868,0.9998069029429347,6.822489080801426e-05,0.0,0.0
54.907,2716,odom,base_link,0.0033584732406304525,7.114787468110076e-05,-2.1774717582450054e-07,0.00033542405842054907,3.0498474093246003e-05,0.01965489189216723,0.9998067672231727,6.822960938451075e-05,0.0,0.0
54.928,2717,odom,base_link,0.0033599050089583196,7.120417361914253e-05,-2.1783906175907406e-07,0.0003415053414280307,2.2489916218093857e-05,0.019630616254858003,0.9998072423091163,6.823456292444722e-05,0.0,0.0
54.947,2718,odom,base_link,0.0033612005110928017,7.12550376027939e-05,-2.1792113479683586e-07,0.00034809751094411315,2.1045184399470925e-05,0.019592348784231765,0.9998079906933831,6.823904750633006e-05,0.0,0.0
54.967,2719,odom,base_link,0.0033625642928163083,7.130849666606014e-05,-2.1800979878950095e-07,0.0003409227962575644,1.2623979548186697e-05,0.019582412716641455,0.9998081879663104,6.824376705748058e-05,0.0,0.0
54.987,2720,odom,base_link,0.0033639281697327578,7.136193725366306e-05,-2.1808029826589807e-07,0.00034092368222867153,3.8913873008738e-05,0.019573671502451404,0.9998083584570933,6.824848693413497e-05,0.0,0.0
55.007,2721,odom,base_link,0.0033652921407042445,7.141538844150388e-05,-2.181868445282018e-07,0.00033736040738745703,-5.629472999488007e-06,0.019608779932903418,0.999807672457962,6.82532071367651e-05,0.0,0.0
55.028,2722,odom,base_link,0.003366656203918636,7.146889685895073e-05,-2.1825472630736783e-07,0.0003409906094057898,2.6017096627449272e-05,0.01957806447964772,0.9998082728402209,6.825792766563647e-05,0.0,0.0
55.047,2723,odom,base_link,0.0033680203632900523,7.152236254843956e-05,-2.183428885671378e-07,0.0003438193912224725,1.9003994233476334e-05,0.01961283977584733,0.9998075904607854,6.826264852083674e-05,0.0,0.0
55.067,2724,odom,base_link,0.0033693846121415913,7.157595599650383e-05,-2.1841120839651052e-07,0.00033245552847022375,5.198257431477731e-05,0.01967018134967981,0.9998064666408216,6.826736970133354e-05,0.0,0.0
55.088,2725,odom,base_link,0.0033707489509944995,7.162966378836575e-05,-2.185190774295403e-07,0.00032567879041902947,7.538394339823207e-06,0.019668171213427038,0.9998065097395683,6.827209120991644e-05,0.0,0.0
55.107,2726,odom,base_link,0.0033721133842839956,7.168337346891253e-05,-2.1859350561433794e-07,0.0003426504697227007,2.9459370874183168e-05,0.019680071108491775,0.9998062694962289,6.827681304354234e-05,0.0,0.0
55.127,2727,odom,base_link,0.0033734779101979332,7.173713103445479e-05,-2.1868543456611883e-07,0.0003422301027905141,1.723204425213256e-05,0.019701882040211758,0.9998058403638613,6.82815352018103e-05,0.0,0.0
55.148,2728,odom,base_link,0.003374910762160207,7.17936253864268e-05,-2.187756754515821e-07,0.0003456471206886297,1.4292880341654431e-05,0.019700799739322455,0.9998058605616456,6.82864925097765e-05,0.0,0.0
55.167,2729,odom,base_link,0.0033762072439406116,7.184468804104524e-05,-2.1885783018577985e-07,0.0003693018046479818,1.8107890286515633e-05,0.019629706193891646,0.9998072503853045,6.829098049932592e-05,0.0,0.0
55.188,2730,odom,base_link,0.0033775720596170102,7.189828837626079e-05,-2.1894475191792503e-07,0.00035530762699759736,1.7638832082421902e-05,0.019625178108884707,0.9998073443566797,6.829570363895478e-05,0.0,0.0
55.207,2731,odom,base_link,0.0033789369699704992,7.195188522033378e-05,-2.1903743003700637e-07,0.0003522606054266249,6.501065517290974e-06,0.019611077308277214,0.9998076222539068,6.830042710312905e-05,0.0,0.0
55.228,2732,odom,base_link,0.0033803019759105594,7.20054555922989e-05,-2.1911105102711107e-07,0.0003496817358172728,3.340430461511678e-05,0.019616466513477576,0.9998075168993089,6.830515089280805e-05,0.0,0.0
55.247,2733,odom,base_link,0.0033816670752172496,7.205905609376312e-05,-2.1919150965730235e-07,0.00036757275350294313,4.7028597877562316e-05,0.01963112056967424,0.9998072223102614,6.830987500957708e-05,0.0,0.0
55.267,2734,odom,base_link,0.0033830322673892507,7.211269968768533e-05,-2.192851724268401e-07,0.0003328574073371334,3.460462442162812e-05,0.01964601351309324,0.999806942445145,6.831459945311858e-05,0.0,0.0
55.288,2735,odom,base_link,0.0033843975536889523,7.216635442608387e-05,-2.1937029705721337e-07,0.0003425809915379358,3.899428394513545e-05,0.019615215671217216,0.9998075436962264,6.831932422215317e-05,0.0,0.0
55.307,2736,odom,base_link,0.0033857629376555813,7.22199303256381e-05,-2.1946092447352638e-07,0.0003485625210824561,3.1810130252282656e-05,0.01959456039794371,0.9998079469053524,6.832404931827096e-05,0.0,0.0
55.327,2737,odom,base_link,0.0033871284180872086,7.22734581303644e-05,-2.1954238661265e-07,0.0003285535881022972,4.1747849995808356e-05,0.019575210508645538,0.9998083323533561,6.83287747411684e-05,0.0,0.0
55.347,2738,odom,base_link,0.0033884939947413416,7.232694410437932e-05,-2.1963613218973654e-07,0.00034710552432424613,2.8293490005954054e-05,0.019567615151867744,0.9998084752363834,6.833350048957303e-05,0.0,0.0
55.368,2739,odom,base_link,0.003389859664916484,7.238045740631697e-05,-2.1971827396294172e-07,0.0003453648741526381,3.6521769311046756e-05,0.019617635618255788,0.999807495351987,6.833822656281537e-05,0.0,0.0
55.387,2740,odom,base_link,0.003391225425602781,7.243407488989714e-05,-2.198012355432857e-07,0.0003295522342498425,4.2756215745496774e-05,0.019609707158259226,0.9998076559780876,6.834295296505336e-05,0.0,0.0
55.407,2741,odom,base_link,0.0033925912843768657,7.248760353213106e-05,-2.1988862306178227e-07,0.00033710445070864365,4.0949507749800935e-05,0.01951884515787621,0.9998094315255431,6.834767969279634e-05,0.0,0.0
55.427,2742,odom,base_link,0.0033939572463757717,7.254091186689839e-05,-2.199883439388823e-07,0.00034132987038105496,1.4968632948914135e-05,0.019469727670802583,0.9998103885108837,6.835240674650662e-05,0.0,0.0
55.447,2743,odom,base_link,0.0033953233062459388,7.259413682507733e-05,-2.2006392116871076e-07,0.0003329108789056966,3.513516931144907e-05,0.019474047777399597,0.9998103067077425,6.835713412642624e-05,0.0,0.0
55.468,2744,odom,base_link,0.003396689458377306,7.264742233430758e-05,-2.201321372472848e-07,0.00032165723780361793,6.956640835516837e-05,0.019534773151131148,0.999809123950702,6.836186183489458e-05,0.0,0.0
55.487,2745,odom,base_link,0.0033980556976894553,7.27008984334704e-05,-2.2024302993120695e-07,0.0003316493174748414,2.0966365760837967e-05,0.019616276990161566,0.9998075271001848,6.836658986976373e-05,0.0,0.0
55.508,2746,odom,base_link,0.003399422024976979,7.275454451575126e-05,-2.2031551366432633e-07,0.0003569583977102179,4.7323261058726544e-05,0.01962059275425067,0.9998074327995281,6.837131823102469e-05,0.0,0.0
55.527,2747,odom,base_link,0.003400788447260769,7.280818156488328e-05,-2.2041115827855498e-07,0.0003306482636499142,2.7378117294569607e-05,0.01960492087460188,0.9998077500198052,6.837604691650953e-05,0.0,0.0
55.547,2748,odom,base_link,0.003402154963362255,7.286183984447067e-05,-2.2048820062379105e-07,0.00035280841529040317,4.4396368753543745e-05,0.019669291708590164,0.999806477533961,6.838077593174597e-05,0.0,0.0
55.567,2749,odom,base_link,0.0034035215684092533,7.291564334505434e-05,-2.2058075917908877e-07,0.0003627645208684057,3.1639956363367866e-05,0.01967394153266988,0.9998063829689151,6.8385505271776e-05,0.0,0.0
55.588,2750,odom,base_link,0.0034049566063434535,7.297211665955106e-05,-2.2068016045734452e-07,0.0003400512191194163,1.0464518394820228e-05,0.019645737549158944,0.9998069459909807,6.839047011742826e-05,0.0,0.0
55.607,2751,odom,base_link,0.003406255065967129,7.302316220961474e-05,-2.2075275340099905e-07,0.0003481478471701575,3.184048081377152e-05,0.019643668199490854,0.9998069834117626,6.83949649312597e-05,0.0,0.0
55.628,2752,odom,base_link,0.0034076903037128553,7.307961014852458e-05,-2.2083106165846976e-07,0.0003291204704443275,5.6714584514380175e-05,0.019680758062811485,0.9998062593449017,6.839993046161998e-05,0.0,0.0
55.647,2753,odom,base_link,0.0034089889384905656,7.313077602239555e-05,-2.209152966280012e-07,0.00034292925360657255,4.750844525484948e-05,0.019706326667072695,0.9998057515496523,6.840442589661999e-05,0.0,0.0
55.667,2754,odom,base_link,0.0034103560107842136,7.31847351231893e-05,-2.2101874672926898e-07,0.00033233880615782144,1.1561015937389744e-05,0.019768864780363684,0.9998045215953749,6.840915686996855e-05,0.0,0.0
55.688,2755,odom,base_link,0.003411723172326816,7.323883219188239e-05,-2.210830893194817e-07,0.00033615164658106823,5.237634941213786e-05,0.019773849817767367,0.9998044204354034,6.841388817171258e-05,0.0,0.0
55.707,2756,odom,base_link,0.0034130904279327276,7.329294541204257e-05,-2.2117043857578977e-07,0.0003612404151120952,4.7999548172083456e-05,0.019789982985597976,0.9998040926975821,6.841861980087904e-05,0.0,0.0
55.727,2757,odom,base_link,0.003414457777422707,7.334707946929069e-05,-2.2126803697589886e-07,0.0003333797927417714,2.1296033183117736e-05,0.01976233217258785,0.999804650234981,6.842335175473706e-05,0.0,0.0
55.747,2758,odom,base_link,0.003415825223929854,7.340115542413574e-05,-2.2135192138235257e-07,0.00034011256203774024,2.1306808426699443e-05,0.01976378523779642,0.9998046192444499,6.84280840352824e-05,0.0,0.0
55.767,2759,odom,base_link,0.0034171927656705607,7.3455218475e-05,-2.2142546285096108e-07,0.0003552798179676569,4.107875358657696e-05,0.019728054841818523,0.9998053190201305,6.843281664459975e-05,0.0,0.0
55.788,2760,odom,base_link,0.003418628791599396,7.351185298364607e-05,-2.2153014573337404e-07,0.0003352739222092594,3.7483542050462346e-06,0.019660157396743896,0.9998066642048764,6.8437784920673e-05,0.0,0.0
55.807,2761,odom,base_link,0.0034199281492205886,7.356294200137144e-05,-2.2158903786544801e-07,0.0003576596718796337,4.9580012122467536e-05,0.01961884553436582,0.9998074667261092,6.844228284491292e-05,0.0,0.0
55.828,2762,odom,base_link,0.0034212959894808596,7.361664165080253e-05,-2.2168717163249083e-07,0.0003435133783497462,2.177285007932193e-05,0.019620241079314923,0.9998074452935882,6.84470164336168e-05,0.0,0.0
55.847,2763,odom,base_link,0.003422663924017044,7.36703533894332e-05,-2.2176627338467306e-07,0.0003669776590841211,3.227062116179878e-05,0.019621354528459346,0.9998074148217113,6.845175034989395e-05,0.0,0.0
55.867,2764,odom,base_link,0.0034240319524738052,7.372408634503271e-05,-2.2185884624148467e-07,0.0003466982015562198,1.5165230866407254e-05,0.019644691877639734,0.9998069641942915,6.845648459208267e-05,0.0,0.0
55.887,2765,odom,base_link,0.0034254000720594533,7.377791174984216e-05,-2.219435551175522e-07,0.00035809623566806115,1.4911366095058497e-05,0.019696943639599545,0.9998059321468319,6.846121916265441e-05,0.0,0.0
55.907,2766,odom,base_link,0.003426768281389854,7.383186469696691e-05,-2.2202923659700803e-07,0.0003484437409294605,1.2780266845676055e-05,0.019720165390403166,0.9998054778308626,6.846595405952701e-05,0.0,0.0
55.927,2767,odom,base_link,0.003428136583884168,7.38858584997296e-05,-2.2211997654794739e-07,0.00033617324927416543,9.59703227698163e-07,0.019713687657582732,0.9998056098590189,6.847068928275776e-05,0.0,0.0
55.947,2768,odom,base_link,0.0034295049813718847,7.393984699702923e-05,-2.2220893309954508e-07,0.00032056342688003653,-8.568260149927864e-06,0.01972160012576267,0.9998054589039579,6.847542483571423e-05,0.0,0.0
55.967,2769,odom,base_link,0.00343087347305944,7.399385044946555e-05,-2.222872212901377e-07,0.00033748590027110663,4.364201236967356e-06,0.019711836970276144,0.9998056458969804,6.848016071454398e-05,0.0,0.0
55.987,2770,odom,base_link,0.0034322420595069244,7.404785469146841e-05,-2.223465029891678e-07,0.00032770970752012856,5.4435038162766624e-05,0.01973875080715538,0.9998051166901214,6.84848969206379e-05,0.0,0.0
56.007,2771,odom,base_link,0.003433610737721441,7.410193566652706e-05,-2.2245600748244407e-07,0.0003426660344825112,6.9660427661579736e-06,0.019756654066255857,0.9998047595163614,6.848963345467993e-05,0.0,0.0
56.028,2772,odom,base_link,0.003434979509469094,7.415604900718313e-05,-2.2252831682513204e-07,0.00034247008440211056,3.1390260218525e-05,0.01975171367487496,0.999804856727451,6.849437031369488e-05,0.0,0.0
56.047,2773,odom,base_link,0.0034363483765527474,7.421014909498309e-05,-2.2260205739912523e-07,0.00033974792315081707,5.3289947814122066e-05,0.01974399411799138,0.999805009203194,6.84991075006215e-05,0.0,0.0
56.067,2774,odom,base_link,0.003437717336484803,7.426429907056212e-05,-2.2268884791793134e-07,0.00032004878369300445,4.881592911147312e-05,0.019827226213360465,0.9998033688113204,6.850384501586368e-05,0.0,0.0
56.087,2775,odom,base_link,0.003439086382856552,7.431866063106068e-05,-2.2279425862103605e-07,0.0003217483637973919,7.598928311297828e-06,0.01986779487164547,0.9998025640831218,6.850858285734881e-05,0.0,0.0
56.107,2776,odom,base_link,0.003440455520583995,7.437310988030566e-05,-2.2286326760585013e-07,0.0003406030390567475,3.835665888441428e-05,0.01988504291485373,0.9998022142337009,6.851332102850006e-05,0.0,0.0
56.127,2777,odom,base_link,0.003441824751076136,7.442761126821313e-05,-2.2294197784184083e-07,0.00033400178110917805,4.9516942383929727e-05,0.01990229990442542,0.9998018725974646,6.851805952325191e-05,0.0,0.0
56.147,2778,odom,base_link,0.0034431940747606912,7.448215422929237e-05,-2.2303567956187617e-07,0.00035034189660444086,3.270057098720457e-05,0.019907327333900483,0.9998017676067836,6.852279834746898e-05,0.0,0.0
56.167,2779,odom,base_link,0.0034445634919157363,7.453673194873125e-05,-2.2312073378785164e-07,0.00033821074952583216,3.236434226355195e-05,0.019937556345814903,0.999801169439702,6.852753749852489e-05,0.0,0.0
56.188,2780,odom,base_link,0.003446001477592478,7.459414837825784e-05,-2.2323362759216528e-07,0.0003255470719766091,-2.0700188635371434e-05,0.019986699459628582,0.9998001927561909,6.853251264285719e-05,0.0,0.0
56.213,2781,odom,base_link,0.0034537593727237076,7.49034513326107e-05,-2.2281419920379613e-07,0.00019276033893641316,-0.00018495793485846473,0.019967414523106592,0.9998005956145839,0.000275234781355967,0.0,0.0
56.227,2782,odom,base_link,0.003458176040740077,7.507998552064472e-05,-2.2271670348223907e-07,0.0003467639109479358,7.133376038186887e-05,0.019983602622847305,0.9998002451952573,0.00027728953720813513,0.0,0.0
56.247,2783,odom,base_link,0.0034586983665287558,7.510143505032904e-05,-2.2318659599022515e-07,0.0003662762041808355,3.137381499175705e-05,0.02003819399781571,0.9997991476485323,0.00017027215312695414,0.0,0.0
56.267,2784,odom,base_link,0.0034595202805573536,7.513477355237443e-05,-2.2331709268602173e-07,0.00036413308260774616,2.6634171529521777e-05,0.020058111910570355,0.999798749171203,0.00011520717521354102,0.0,0.0
56.287,2785,odom,base_link,0.00346055808537343,7.517659650067912e-05,-2.2342727032220319e-07,0.0003321897961902433,-4.269758107368072e-06,0.020069047511451523,0.9997985411890196,8.818390878802832e-05,0.0,0.0
56.307,2786,odom,base_link,0.0034617020022385896,7.522267049038997e-05,-2.2350064884795762e-07,0.00036141080685057295,1.1527732085651113e-05,0.020144044840899347,0.9997970227535127,7.491892770087253e-05,0.0,0.0
56.327,2787,odom,base_link,0.003462898019761352,7.527094965171668e-05,-2.235572777552287e-07,0.0003678274360623736,5.855609208636743e-05,0.020150250197503067,0.9997968937194891,6.840675705457082e-05,0.0,0.0
56.347,2788,odom,base_link,0.0034641196703427157,7.532021507538067e-05,-2.2364795461251934e-07,0.0003392463418909835,3.282290644154389e-05,0.020130462295192945,0.9997973036182675,6.521108442035833e-05,0.0,0.0
56.368,2789,odom,base_link,0.003465353976344205,7.536993532825601e-05,-2.237278292355896e-07,0.0003402639262300949,2.6336812362399565e-05,0.0201170568437871,0.9997975732871012,6.364507959656735e-05,0.0,0.0
56.387,2790,odom,base_link,0.00346659457477318,7.541987410237841e-05,-2.23821966253185e-07,0.00033723803303328196,-9.684002163092417e-06,0.02010654294895584,0.9997977861084566,6.288025582562942e-05,0.0,0.0
56.407,2791,odom,base_link,0.0034678383451488518,7.546992629852174e-05,-2.2389289164582533e-07,0.00031982562405441983,3.46951610702807e-06,0.0201154400812882,0.9997976129046662,6.250949443830237e-05,0.0,0.0
56.427,2792,odom,base_link,0.003469083754876955,7.552008741103354e-05,-2.2395983418336266e-07,0.00034503380579566307,2.6095580501852686e-05,0.02015290032382991,0.9997968498046148,6.233263713863754e-05,0.0,0.0
56.448,2793,odom,base_link,0.00347033004941957,7.557041499033471e-05,-2.2403856405014064e-07,0.0003464994883166735,2.2852758028537764e-05,0.020243014219930647,0.9997950288889957,6.22512283936155e-05,0.0,0.0
56.467,2794,odom,base_link,0.003471576857814653,7.56209487416883e-05,-2.2411519871762682e-07,0.00036507203229928616,2.433982069487492e-05,0.020267331375631102,0.9997945295954037,6.221681559080705e-05,0.0,0.0
56.487,2795,odom,base_link,0.0034728240047093464,7.567153784755004e-05,-2.241899972307557e-07,0.00033078636354809073,2.8335798111966224e-05,0.02027750935238385,0.9997943350469276,6.22055425756208e-05,0.0,0.0
56.507,2796,odom,base_link,0.003474071402194551,7.572215042972229e-05,-2.2425689957667538e-07,0.0003833042008845001,2.293457879501003e-05,0.020266179277134342,0.9997945461590605,6.220565807019319e-05,0.0,0.0
56.527,2797,odom,base_link,0.007954629732835804,0.00025701763575401455,-4.068665404281583e-07,0.0003393657998326131,4.737718298202865e-05,0.020321911980897955,0.9997934299042462,0.09724149795996317,0.0,0.0
56.548,2798,odom,base_link,0.019707323594813485,0.0007336169521415795,-9.93437053120139e-07,0.00033800388806885546,2.844242909568116e-05,0.020339020164704947,0.9997930831942875,0.3045829181537391,0.0,0.0
56.567,2799,odom,base_link,0.030110947305490698,0.001156787115288917,-1.6185773858565287e-06,0.00035418831171971473,-2.537657888366458e-07,0.02042149815478552,0.9997913967241815,0.40791675684297046,0.0,0.0
56.589,2800,odom,base_link,0.04092322428656486,0.00159848196011319,-2.0297833439498626e-06,0.00035168073318201455,5.9778166362188e-05,0.02044547870503055,0.9997909057136672,0.4598910682468918,0.0,0.0
56.607,2801,odom,base_link,0.05065803911715268,0.0019997207133576347,-2.7822811723121676e-06,0.0003332974457151131,1.7412985408697374e-05,0.02106128398323393,0.9997781308503292,0.48591543111272895,0.0,0.0
56.628,2802,odom,base_link,0.060754592981326565,0.002435326004974719,-3.415283320124838e-06,0.0003307247991480077,2.3391567464849013e-05,0.022875383220608312,0.999738269206722,0.4988568243777738,0.0,0.0
56.647,2803,odom,base_link,0.07079699711051958,0.0029125130306677845,-4.0556673990751504e-06,0.00033197668168027825,2.9885926990276765e-05,0.02581377817103706,0.9996667133374256,0.5051135932205002,0.0,0.0
56.668,2804,odom,base_link,0.08081480187624777,0.0034515726108675436,-4.660019869264454e-06,0.0003288381586590489,4.5588719970354905e-05,0.02922042111101939,0.9995729371972957,0.5081955133823297,0.0,0.0
56.687,2805,odom,base_link,0.0908163920865135,0.00405901319685662,-5.308518268409079e-06,0.00034752215335838395,4.910673312520954e-05,0.03262224000413875,0.9994676914608066,0.5096484109776984,0.0,0.0
56.708,2806,odom,base_link,0.10081442536375668,0.00473524818582579,-5.951534185155846e-06,0.0003419586069147172,6.223826730522847e-05,0.036080100769171744,0.999348840755417,0.5104479922315011,0.0,0.0
56.727,2807,odom,base_link,0.11079752619971216,0.00548040262777535,-6.7874292573487355e-06,0.0003030789155780124,1.660904541051371e-05,0.03953805919921025,0.9992180191239899,0.5106361009953587,0.0,0.0
56.747,2808,odom,base_link,0.12077395102310175,0.0062938505392770745,-7.369638424968658e-06,0.0003291990037281526,3.537434077252207e-05,0.042841256945090105,0.9990818370283971,0.5106602853603404,0.0,0.0
56.767,2809,odom,base_link,0.13073758451682901,0.00717251282668448,-7.918440120328958e-06,0.00034273666941753487,3.665654002094932e-05,0.04611863538649543,0.9989359101854136,0.5104628884397757,0.0,0.0
56.787,2810,odom,base_link,0.14069337216684594,0.008116560718185818,-8.383523531321047e-06,0.0003311444140551427,6.368733326127153e-05,0.049413373710769266,0.9987783561861062,0.5102550645309157,0.0,0.0
56.808,2811,odom,base_link,0.15064158009898593,0.009125354932445894,-9.056695980964598e-06,0.00031316724092257854,3.604417602308834e-05,0.05254852839278498,0.9986183218782084,0.510055612195405,0.0,0.0
56.827,2812,odom,base_link,0.1605817799672853,0.010195470184118982,-9.732738499658083e-06,0.00034655779492242947,2.0562023859374915e-05,0.05553070039022366,0.9984569198463542,0.509853658818758,0.0,0.0
56.847,2813,odom,base_link,0.17051866071631408,0.011325245473662038,-1.0256279200043256e-05,0.0003404263176159536,2.9861204423422638e-05,0.05852320271682024,0.9982859900659713,0.5097561952598944,0.0,0.0
56.868,2814,odom,base_link,0.1804515169840289,0.012514585739760149,-1.0886431135586096e-05,0.00032717796242533046,1.987269480059064e-05,0.06144481289431652,0.9981104285238379,0.5097118579494797,0.0,0.0
56.887,2815,odom,base_link,0.19037841615836665,0.013760671193381653,-1.1484578357413185e-05,0.0003511864134100569,1.875773713320841e-05,0.06409893635001226,0.9979434867140762,0.5096572322897668,0.0,0.0
56.907,2816,odom,base_link,0.20030051752137432,0.015058635449204707,-1.2037555767826097e-05,0.00034349920925374285,5.3123345254055684e-05,0.06658838866775256,0.9977804696830038,0.5096155902074303,0.0,0.0
56.928,2817,odom,base_link,0.21021662547988773,0.016405879201167192,-1.2751148785067925e-05,0.00034648181754402054,3.8974517120615856e-05,0.0690400410829967,0.9976138286724956,0.5095546644090183,0.0,0.0
56.947,2818,odom,base_link,0.220127793389995,0.017802976147311994,-1.3411646714113455e-05,0.0003505578271292615,2.6941382780239236e-05,0.07165492564305032,0.9974294200666333,0.5095129489594757,0.0,0.0
56.967,2819,odom,base_link,0.23003992033554654,0.01925474777786016,-1.3965906843801346e-05,0.00033669023521625446,4.696789313600665e-05,0.07451863995469461,0.9972195629514119,0.5096300568598334,0.0,0.0
56.987,2820,odom,base_link,0.2399466239951096,0.020764353295703353,-1.4545088346376691e-05,0.00034603365629687013,6.257476093865925e-05,0.07741489226406854,0.9969989021061412,0.5097189475006834,0.0,0.0
57.007,2821,odom,base_link,0.24984754919877034,0.022331901861719197,-1.5162587647623335e-05,0.0003331608110567528,5.726795296045589e-05,0.08028885550378678,0.9967715813596151,0.5097921671290345,0.0,0.0
57.028,2822,odom,base_link,0.2597435843421427,0.02395722766045862,-1.5886689270727317e-05,0.00034455527153659125,1.7385360654220644e-05,0.08315861298009625,0.9965362643008234,0.5098826834275277,0.0,0.0
57.047,2823,odom,base_link,0.26963138017281246,0.02563975203319254,-1.630220812197315e-05,0.0003539189819277217,5.2916726442798087e-05,0.08601791886780992,0.9962935258119594,0.5099172182496958,0.0,0.0
57.067,2824,odom,base_link,0.279505338881437,0.027378057828965487,-1.6932168391405562e-05,0.0003418732910776799,2.5458299726389188e-05,0.08881305629332013,0.9960482536033921,0.509802355835363,0.0,0.0
57.088,2825,odom,base_link,0.2898444347342996,0.02925984227778643,-1.7295206443568772e-05,0.0003463382402384406,6.888819757213549e-05,0.09183959694288356,0.995773751279681,0.5093508239202869,0.0,0.0
57.107,2826,odom,base_link,0.2991584426692204,0.031011599865888112,-1.7846328624874557e-05,0.00034899873630283597,4.5892961514326926e-05,0.09457115142007025,0.9955180427359418,0.5083918822019902,0.0,0.0
57.128,2827,odom,base_link,0.30896676375003435,0.03291245669205073,-1.8362564223057003e-05,0.0003262521970040159,3.1900559967210794e-05,0.09729178721579249,0.9952558468465359,0.5080262318121214,0.0,0.0
57.147,2828,odom,base_link,0.3187645483315482,0.034866291193145944,-1.8883459776100698e-05,0.00033148445991155686,2.002614403819542e-05,0.09994268403013885,0.9949931404918619,0.5077734716900131,0.0,0.0
57.167,2829,odom,base_link,0.3285526249711484,0.03687276978289705,-1.9304361609568403e-05,0.00033633680724429096,3.941353999907041e-05,0.1026614464285644,0.9947162976152144,0.5076070605176288,0.0,0.0
57.188,2830,odom,base_link,0.3383298685395095,0.038932774372744366,-1.98329348205512e-05,0.00033873899465453603,3.2538720287312914e-05,0.10536814219844334,0.9944332249109409,0.5074763474674953,0.0,0.0
57.207,2831,odom,base_link,0.3480924479224024,0.041045035419386214,-2.0278128094261084e-05,0.0003358068119704384,4.745865456803993e-05,0.10803260723729899,0.9941472932895672,0.507285699427596,0.0,0.0
57.227,2832,odom,base_link,0.3578483120598179,0.04320992222287264,-2.088222819631558e-05,0.00033560070823109554,2.3889688057743357e-05,0.11059161758199461,0.9938658767268576,0.5072374213896849,0.0,0.0
57.248,2833,odom,base_link,0.36809132304935505,0.0455384020661402,-2.131600063416969e-05,0.00032535957023883066,4.7600692928495485e-05,0.11318990550849269,0.9935733174589092,0.5074551940529146,0.0,0.0
57.267,2834,odom,base_link,0.3773369811061691,0.04768885207449761,-2.179273092074746e-05,0.0003635646222139183,6.558472140358394e-05,0.1154916877896489,0.9933083778821701,0.507271243860302,0.0,0.0
57.288,2835,odom,base_link,0.3870725687121782,0.050002079792815124,-2.2349304771397544e-05,0.0003311643431787546,7.659374181909979e-05,0.11792857295479826,0.9930220219836121,0.5073968971395241,0.0,0.0
57.308,2836,odom,base_link,0.39729179984316254,0.05248382963409264,-2.3036411758206508e-05,0.00034175506284795775,5.893075480384891e-05,0.12044665443811067,0.992719740493413,0.5076735540914716,0.0,0.0
57.327,2837,odom,base_link,0.4065113835364284,0.05476966726584244,-2.3568209960695537e-05,0.0003297491456432592,6.32926327911545e-05,0.1225512761549805,0.9924621262155696,0.507424760432812,0.0,0.0
57.348,2838,odom,base_link,0.4162163045376067,0.057218326757023166,-2.416210622078334e-05,0.00033422026485753107,6.880502578989344e-05,0.12437457245202832,0.9922352792004819,0.5074226620359914,0.0,0.0
57.367,2839,odom,base_link,0.4259099567710553,0.05969930980714148,-2.4754633893572138e-05,0.00033669934808666456,7.30750247827981e-05,0.12577342738773528,0.9920589328546625,0.5073226901015662,0.0,0.0
57.387,2840,odom,base_link,0.43560122209771474,0.06220670588200915,-2.5457636953473415e-05,0.0003604196876354545,5.054082208210189e-05,0.12688545848653773,0.9919173090373687,0.5073225258593155,0.0,0.0
57.408,2841,odom,base_link,0.44528749934473494,0.06473475010784054,-2.6009000530948716e-05,0.0003516573741028725,6.382454841256347e-05,0.1278254151876636,0.9917966200263135,0.5072947047462241,0.0,0.0
57.427,2842,odom,base_link,0.4549699330885198,0.06728150797341846,-2.6716449069214282e-05,0.0003398622798334695,3.437337685638185e-05,0.12882007937326068,0.9916679234816302,0.507265392637323,0.0,0.0
57.448,2843,odom,base_link,0.464646696301383,0.0698485564536989,-2.7197957050977917e-05,0.0003104732422091802,6.429321399410712e-05,0.12998351178757991,0.9915161048294255,0.5072067079302628,0.0,0.0
57.467,2844,odom,base_link,0.47431666597443284,0.07244041105832566,-2.7700199565171533e-05,0.0003173162139613613,8.061707171140667e-05,0.1315306342945831,0.9913120523091468,0.5071342271417782,0.0,0.0
57.487,2845,odom,base_link,0.4839688820923185,0.07506234680993218,-2.8365047496438925e-05,0.00033311514880375744,8.158626703907189e-05,0.13342956714254586,0.9910582389497256,0.5068559476809753,0.0,0.0
57.508,2846,odom,base_link,0.4936131503561304,0.07772132989007927,-2.903833789816727e-05,0.00034038910740646477,6.36947527586361e-05,0.13520496854895905,0.9908175899518079,0.5067074596638858,0.0,0.0
57.527,2847,odom,base_link,0.5032422997189271,0.08041003788888583,-2.968831041013602e-05,0.00035596054625235623,4.073977561116551e-05,0.13642703290562874,0.9906500574496157,0.5064444593916311,0.0,0.0
57.547,2848,odom,base_link,0.512852905307171,0.08311490016206709,-3.013343910718922e-05,0.00033367658266150496,6.470143698046246e-05,0.1369749037779414,0.9905744596993635,0.5059668255581835,0.0,0.0
57.568,2849,odom,base_link,0.5224652373969662,0.08582813485253744,-3.081696540152309e-05,0.00033664550979711853,4.3885461767583295e-05,0.13704023425588543,0.9905654238559708,0.505744602127192,0.0,0.0
57.587,2850,odom,base_link,0.5320881012917857,0.08854458415817026,-3.134085961242247e-05,0.0003446364869040775,6.367699286057707e-05,0.13702317597473374,0.990567779819599,0.5058234628826594,0.0,0.0
57.607,2851,odom,base_link,0.5416950264597477,0.09125711212336464,-3.183740214017873e-05,0.0003270151373150195,8.210367538533765e-05,0.13713955825217172,0.9905516785521519,0.5054808206413977,0.0,0.0
57.628,2852,odom,base_link,0.5512955161096825,0.0939705344269918,-3.236072257980866e-05,0.0003244871656398817,8.107660041799315e-05,0.13729392996986656,0.9905302948058142,0.5051229870829056,0.0,0.0
57.647,2853,odom,base_link,0.5609018414756888,0.09669053063827661,-3.300004154556072e-05,0.00034978974057973413,4.655563034691375e-05,0.13778563240336336,0.9904620108731662,0.5050467673147557,0.0,0.0
57.668,2854,odom,base_link,0.570510910537349,0.09942495061314681,-3.346380432211625e-05,0.0003314257573307263,5.0782319495990715e-05,0.1388187590126306,0.9903177468491194,0.5051150486259831,0.0,0.0
57.687,2855,odom,base_link,0.5801051134751485,0.10218143107802558,-3.393954134030943e-05,0.0003675614291055241,4.176673030266334e-05,0.14055828033378256,0.9900723372480145,0.5049453806861826,0.0,0.0
57.707,2856,odom,base_link,0.589699579132116,0.10497678477027168,-3.431958604368226e-05,0.0003203820178302629,6.25704268545066e-05,0.1426140590505745,0.9897783204341382,0.5050578152304128,0.0,0.0
57.728,2857,odom,base_link,0.5992820885401186,0.10781228279324083,-3.483731435470623e-05,0.0003574948034530545,6.188282144530154e-05,0.1446955990798586,0.9894761502809972,0.5050893295383136,0.0,0.0
57.747,2858,odom,base_link,0.6088525042224906,0.11068797320586281,-3.535725270770345e-05,0.00033755996362695907,5.332556373068348e-05,0.14675279498542051,0.9891731397352146,0.5050758770171414,0.0,0.0
57.767,2859,odom,base_link,0.6184113476446405,0.11360377105477062,-3.584437514598177e-05,0.00035762058853645,6.253387373699976e-05,0.14884113693730852,0.9888610540173168,0.5050510372136044,0.0,0.0
57.788,2860,odom,base_link,0.6284402089185194,0.11671012477522301,-3.639980373864342e-05,0.00034064921300197364,4.401838920417214e-05,0.1510522069149835,0.9885257269320856,0.5051563511011757,0.0,0.0
57.807,2861,odom,base_link,0.6374938560166284,0.11955676228080674,-3.687740958855349e-05,0.0003242516212431716,3.4556239619980744e-05,0.1529811101687975,0.9882290592763778,0.5049940899268672,0.0,0.0
57.828,2862,odom,base_link,0.6470185753089827,0.12259316177021023,-3.724122419243737e-05,0.0003401912480572123,6.284658331415823e-05,0.1549606174515833,0.9879205875773851,0.5049879959505083,0.0,0.0
57.847,2863,odom,base_link,0.6565327347852279,0.12566771307989552,-3.781458844915631e-05,0.00033707641997004773,5.567731763929189e-05,0.15685680853466416,0.9876212962952161,0.5049937623356413,0.0,0.0
57.867,2864,odom,base_link,0.6660425295363035,0.12878071613824163,-3.8344442417240705e-05,0.00031973154591090293,6.250940940457862e-05,0.158701278059691,0.9873265914612716,0.5051390378313256,0.0,0.0
57.888,2865,odom,base_link,0.6760192434295077,0.13208776713180592,-3.8933732674224704e-05,0.0003336540738600184,6.286240977472198e-05,0.16051352225942414,0.9870335829621755,0.505309154030086,0.0,0.0
57.907,2866,odom,base_link,0.6850271508437411,0.13510694805307272,-3.932168100521773e-05,0.0003272191180109784,0.0001026420938779034,0.16179316486513132,0.986824631935773,0.5051674341893283,0.0,0.0
57.927,2867,odom,base_link,0.6945071015056473,0.13830925134572142,-4.0039871598387744e-05,0.00032304681318333275,7.069150735207827e-05,0.1626384450943176,0.9866856778228666,0.5051536746956049,0.0,0.0
57.947,2868,odom,base_link,0.7039881518593245,0.14152666235126848,-4.063243908945198e-05,0.0003462503259966572,8.380303917480324e-05,0.1630052199723644,0.9866251422650466,0.5052497496053004,0.0,0.0
57.967,2869,odom,base_link,0.7134720899710455,0.14475086388595637,-4.117198579000457e-05,0.0003264677006085324,0.00010351244550490876,0.16310099268219183,0.9866093192799762,0.5053872812843865,0.0,0.0
57.988,2870,odom,base_link,0.7229555578509677,0.14797663690589927,-4.193909298037087e-05,0.00034392443123057193,7.116975895122787e-05,0.1631742743427409,0.9865971988828931,0.5054429937609182,0.0,0.0
58.007,2871,odom,base_link,0.7324443361736634,0.15120566640725033,-4.2482214946497515e-05,0.0003601051830151653,8.845538812074228e-05,0.16324306321972837,0.986585812187942,0.5055823815979749,0.0,0.0
58.028,2872,odom,base_link,0.7419273219527686,0.15443482199296496,-4.311251617586994e-05,0.0003428027368579094,7.463933379788597e-05,0.1634090835453511,0.9865583349858851,0.5055199011894699,0.0,0.0
58.047,2873,odom,base_link,0.7514060288463722,0.15766730595563097,-4.3629817388826314e-05,0.00032544798311669724,9.012114917612437e-05,0.16376695552740372,0.986498996572766,0.5053950907514567,0.0,0.0
58.067,2874,odom,base_link,0.7608832152644216,0.1609094506935919,-4.419067940404363e-05,0.0003522857360310957,9.434902673503861e-05,0.16453834341600754,0.9863706202736056,0.5053359016753701,0.0,0.0
58.088,2875,odom,base_link,0.7703541915937788,0.16416985799284142,-4.487230460041086e-05,0.0003391110585826388,7.505978852496365e-05,0.1659024778455566,0.9861421029519136,0.5052793532874913,0.0,0.0
58.107,2876,odom,base_link,0.7797958209588214,0.16745161436406594,-4.5504085635496595e-05,0.0003215216544865863,7.24591566127522e-05,0.1675010333840467,0.9858718452155801,0.5047726454983079,0.0,0.0
58.128,2877,odom,base_link,0.7892280905304746,0.1707631776316792,-4.607572557179075e-05,0.0003281619593006874,6.587108895758267e-05,0.16889169319691696,0.9856345590226666,0.5044795699540852,0.0,0.0
58.147,2878,odom,base_link,0.7986377300778894,0.17409411923820384,-4.664205887113466e-05,0.0003453510101981489,5.185101232931704e-05,0.16986045226831648,0.9854680638150357,0.5039645462741179,0.0,0.0
58.167,2879,odom,base_link,0.8080426050292842,0.17744076084345223,-4.717833086528782e-05,0.0003242868851758953,4.423820514099567e-05,0.17033570407594611,0.9853860364334118,0.5036623427671126,0.0,0.0
58.188,2880,odom,base_link,0.8174469392416878,0.1807946887657721,-4.761929668216585e-05,0.0003241189384403042,7.560084962900018e-05,0.17043780846715392,0.9853683791741742,0.5035084582802118,0.0,0.0
58.207,2881,odom,base_link,0.826862747561935,0.18415319766450397,-4.819861715790709e-05,0.0003291142493973104,7.567761787803067e-05,0.17033838482184713,0.9853855695173304,0.5036663271911866,0.0,0.0
58.227,2882,odom,base_link,0.8362856123546047,0.18751200112948327,-4.873474109028973e-05,0.0003570645330009697,9.728363483888967e-05,0.1702639412902862,0.9853984236526419,0.5038821741802767,0.0,0.0
58.248,2883,odom,base_link,0.8457053237707992,0.1908685314773358,-4.932311516120356e-05,0.0003362839229478234,9.335860348695709e-05,0.17024431463304587,0.9854018223711678,0.5039040279577917,0.0,0.0
58.267,2884,odom,base_link,0.8551186308073193,0.19422293157947998,-5.000866034896666e-05,0.0003227000502509011,6.487499872557765e-05,0.17030724523282406,0.9853909548382909,0.5037490556679197,0.0,0.0
58.287,2885,odom,base_link,0.8645210699239052,0.19757549538157476,-5.050211669577139e-05,0.0003099284878312054,6.832873261939908e-05,0.1704605615199486,0.9853644484361208,0.5034034487717147,0.0,0.0
58.308,2886,odom,base_link,0.8744007500048918,0.20110292304287294,-5.099635764641437e-05,0.0003223096585231853,8.415247661933284e-05,0.17084480114781483,0.9852978955400281,0.5033943867058431,0.0,0.0
58.328,2887,odom,base_link,0.8833267104560245,0.20430009599488774,-5.149924481286381e-05,0.0003187094588237498,9.052197978658795e-05,0.1716236726169005,0.9851625273159444,0.5031445995145347,0.0,0.0
58.348,2888,odom,base_link,0.8932101945069835,0.20786257277690384,-5.218191479606103e-05,0.0003523966138863327,4.942570313510301e-05,0.17315020846915977,0.9848953643310607,0.5035324400962218,0.0,0.0
58.367,2889,odom,base_link,0.9021292627341986,0.21110953973163485,-5.260884888258526e-05,0.00036311810884067633,8.288922849045301e-05,0.1747625790088489,0.984610533283486,0.5034145582143592,0.0,0.0
58.388,2890,odom,base_link,0.9115111315365816,0.2145615288282654,-5.314076954883956e-05,0.0002912866788664011,7.990219213251456e-05,0.17657298360025006,0.984287503847436,0.5034235289981929,0.0,0.0
58.407,2891,odom,base_link,0.9208801199156177,0.21804840655417154,-5.3694076912179185e-05,0.00033544329519591653,8.875027164544518e-05,0.17843496241247536,0.9839516470792878,0.5034116915873591,0.0,0.0
58.428,2892,odom,base_link,0.9302366894743477,0.221570590776384,-5.422855673961305e-05,0.00030997692389183207,8.872523385142838e-05,0.18021707348924634,0.9836268105664419,0.5034028623359553,0.0,0.0
